log_timestamp_utc,event_type,frame_seq_recv,rssi_dbm,notes,packet_type_recv_hex,data_len_byte_value,payload_len_on_wire,ack_seq_sent,ack_type_sent_hex,is_decoded_ts_valid,calculated_latency_ms,decoded_ts,decoded_accel_ax,decoded_accel_ay,decoded_accel_az,decoded_gyro_gx,decoded_gyro_gy,decoded_gyro_gz,decoded_angle_roll,decoded_angle_pitch,decoded_angle_yaw,decoded_gps_lat,decoded_gps_lon,decoded_gps_altitude
2025-06-23T04:45:47.868+00:00Z,SERIAL_PORT_OPEN,,,,,,,,,,,,,,,,,,,,,,,
2025-06-23T04:45:54.872+00:00Z,HANDSHAKE_SYN_TIMEOUT,,,,,,,,,,,,,,,,,,,,,,,
2025-06-23T04:46:01.880+00:00Z,HANDSHAKE_SYN_TIMEOUT,,,,,,,,,,,,,,,,,,,,,,,
2025-06-23T04:46:05.321+00:00Z,HANDSHAKE_SYN_RECV,,,,,,,,,,,,,,,,,,,,,,,
2025-06-23T04:46:05.332+00:00Z,HANDSHAKE_ACK_SENT,,,,,,,0,0x00,,,,,,,,,,,,,,,
2025-06-23T04:46:05.333+00:00Z,HANDSHAKE_SUCCESS,,,,,,,,,,,,,,,,,,,,,,,
2025-06-23T04:46:11.386+00:00Z,DATA_FRAME_INCOMPLETE,,,,,13,,,,,,,,,,,,,,,,,,
2025-06-23T04:46:16.000+00:00Z,KEYBOARD_INTERRUPT,,,,,,,,,,,,,,,,,,,,,,,
2025-06-23T04:46:16.001+00:00Z,PDR_CALCULATED,,,0.00% (0/200),,,,,,,,,,,,,,,,,,,,
2025-06-23T04:46:16.002+00:00Z,SERIAL_PORT_CLOSED,,,,,,,,,,,,,,,,,,,,,,,
2025-06-23T04:46:17.795+00:00Z,SERIAL_PORT_OPEN,,,,,,,,,,,,,,,,,,,,,,,
2025-06-23T04:46:24.804+00:00Z,HANDSHAKE_SYN_TIMEOUT,,,,,,,,,,,,,,,,,,,,,,,
2025-06-23T04:46:26.136+00:00Z,HANDSHAKE_SYN_RECV,,,,,,,,,,,,,,,,,,,,,,,
2025-06-23T04:46:26.148+00:00Z,HANDSHAKE_ACK_SENT,,,,,,,0,0x00,,,,,,,,,,,,,,,
2025-06-23T04:46:26.149+00:00Z,HANDSHAKE_SUCCESS,,,,,,,,,,,,,,,,,,,,,,,
2025-06-23T04:54:13.448+00:00Z,KEYBOARD_INTERRUPT,,,,,,,,,,,,,,,,,,,,,,,
2025-06-23T04:54:13.449+00:00Z,PDR_CALCULATED,,,0.00% (0/200),,,,,,,,,,,,,,,,,,,,
2025-06-23T04:54:13.451+00:00Z,SERIAL_PORT_CLOSED,,,,,,,,,,,,,,,,,,,,,,,
2025-06-23T04:54:14.997+00:00Z,SERIAL_PORT_OPEN,,,,,,,,,,,,,,,,,,,,,,,
2025-06-23T04:54:20.901+00:00Z,HANDSHAKE_SYN_RECV,,,,,,,,,,,,,,,,,,,,,,,
2025-06-23T04:54:20.912+00:00Z,HANDSHAKE_ACK_SENT,,,,,,,0,0x00,,,,,,,,,,,,,,,
2025-06-23T04:54:20.913+00:00Z,HANDSHAKE_SUCCESS,,,,,,,,,,,,,,,,,,,,,,,
2025-06-23T04:54:25.187+00:00Z,DATA_FRAME_INCOMPLETE,,,,,13,,,,,,,,,,,,,,,,,,
2025-06-23T04:54:28.251+00:00Z,KEYBOARD_INTERRUPT,,,,,,,,,,,,,,,,,,,,,,,
2025-06-23T04:54:28.252+00:00Z,PDR_CALCULATED,,,0.00% (0/200),,,,,,,,,,,,,,,,,,,,
2025-06-23T04:54:28.253+00:00Z,SERIAL_PORT_CLOSED,,,,,,,,,,,,,,,,,,,,,,,
2025-06-23T04:54:29.342+00:00Z,SERIAL_PORT_OPEN,,,,,,,,,,,,,,,,,,,,,,,
2025-06-23T04:54:31.157+00:00Z,HANDSHAKE_SYN_RECV,,,,,,,,,,,,,,,,,,,,,,,
2025-06-23T04:54:31.167+00:00Z,HANDSHAKE_ACK_SENT,,,,,,,0,0x00,,,,,,,,,,,,,,,
2025-06-23T04:54:31.168+00:00Z,HANDSHAKE_SUCCESS,,,,,,,,,,,,,,,,,,,,,,,
2025-06-23T04:54:36.332+00:00Z,CTRL_PKT_RECV,1,,,0x50,,,,,,,,,,,,,,,,,,,
2025-06-23T04:54:36.344+00:00Z,SEND_PERMIT_ACK_SENT,,,,,,,1,0x55,,,,,,,,,,,,,,,
2025-06-23T04:54:39.675+00:00Z,CTRL_PKT_RECV,2,,,0x50,,,,,,,,,,,,,,,,,,,
2025-06-23T04:54:39.688+00:00Z,SEND_PERMIT_ACK_SENT,,,,,,,2,0x55,,,,,,,,,,,,,,,
2025-06-23T04:54:46.698+00:00Z,CTRL_PKT_RECV,4,,,0x50,,,,,,,,,,,,,,,,,,,
2025-06-23T04:54:46.708+00:00Z,SEND_PERMIT_ACK_SENT,,,,,,,4,0x55,,,,,,,,,,,,,,,
2025-06-23T04:54:50.253+00:00Z,DATA_FRAME_RECV,4,-102,,,33,32,,,,,,,,,,,,,,,,,
2025-06-23T04:54:50.264+00:00Z,DATA_ACK_SENT,,,,,,,4,0xaa,,,,,,,,,,,,,,,
2025-06-23T04:54:50.268+00:00Z,DECODE_SUCCESS,4,-102,,,,,,,True,5265,1750654485.0,-0.304,-0.539,0.799,0.5,-0.5,1.0,-34.0,17.6,26.4,33.88803482055664,127.78359985351562,0.0
2025-06-23T04:54:53.596+00:00Z,CTRL_PKT_RECV,5,,,0x50,,,,,,,,,,,,,,,,,,,
2025-06-23T04:54:53.608+00:00Z,SEND_PERMIT_ACK_SENT,,,,,,,5,0x55,,,,,,,,,,,,,,,
2025-06-23T04:55:00.618+00:00Z,CTRL_PKT_RECV,7,,,0x50,,,,,,,,,,,,,,,,,,,
2025-06-23T04:55:00.628+00:00Z,SEND_PERMIT_ACK_SENT,,,,,,,7,0x55,,,,,,,,,,,,,,,
2025-06-23T04:55:04.173+00:00Z,DATA_FRAME_RECV,7,-102,,,33,32,,,,,,,,,,,,,,,,,
2025-06-23T04:55:04.184+00:00Z,DATA_ACK_SENT,,,,,,,7,0xaa,,,,,,,,,,,,,,,
2025-06-23T04:55:04.187+00:00Z,DECODE_SUCCESS,7,-102,,,,,,,True,5184,1750654499.0,-0.307,-0.542,0.8,0.4,-0.7,1.1,-34.0,17.6,26.4,33.006046295166016,129.01766967773438,0.0
2025-06-23T04:55:07.516+00:00Z,CTRL_PKT_RECV,8,,,0x50,,,,,,,,,,,,,,,,,,,
2025-06-23T04:55:07.528+00:00Z,SEND_PERMIT_ACK_SENT,,,,,,,8,0x55,,,,,,,,,,,,,,,
2025-06-23T04:55:14.533+00:00Z,CTRL_PKT_RECV,10,,,0x50,,,,,,,,,,,,,,,,,,,
2025-06-23T04:55:14.544+00:00Z,SEND_PERMIT_ACK_SENT,,,,,,,10,0x55,,,,,,,,,,,,,,,
2025-06-23T04:55:18.088+00:00Z,DATA_FRAME_RECV,10,-102,,,33,32,,,,,,,,,,,,,,,,,
2025-06-23T04:55:18.100+00:00Z,DATA_ACK_SENT,,,,,,,10,0xaa,,,,,,,,,,,,,,,
2025-06-23T04:55:18.104+00:00Z,DECODE_SUCCESS,10,-102,,,,,,,True,5101,1750654513.0,-0.304,-0.541,0.8,0.4,-0.5,0.6,-33.9,17.6,26.5,34.905006408691406,128.5352783203125,86.9
2025-06-23T04:55:21.430+00:00Z,CTRL_PKT_RECV,11,,,0x50,,,,,,,,,,,,,,,,,,,
2025-06-23T04:55:21.444+00:00Z,SEND_PERMIT_ACK_SENT,,,,,,,11,0x55,,,,,,,,,,,,,,,
2025-06-23T04:55:28.448+00:00Z,CTRL_PKT_RECV,13,,,0x50,,,,,,,,,,,,,,,,,,,
2025-06-23T04:55:28.460+00:00Z,SEND_PERMIT_ACK_SENT,,,,,,,13,0x55,,,,,,,,,,,,,,,
2025-06-23T04:55:32.003+00:00Z,DATA_FRAME_RECV,13,-102,,,33,32,,,,,,,,,,,,,,,,,
2025-06-23T04:55:32.016+00:00Z,DATA_ACK_SENT,,,,,,,13,0xaa,,,,,,,,,,,,,,,
2025-06-23T04:55:32.019+00:00Z,DECODE_SUCCESS,13,-102,,,,,,,True,5017,1750654527.0,-0.306,-0.542,0.798,0.1,-0.1,0.0,-33.9,17.6,26.5,35.369144439697266,129.09165954589844,0.0
2025-06-23T04:55:35.346+00:00Z,CTRL_PKT_RECV,14,,,0x50,,,,,,,,,,,,,,,,,,,
2025-06-23T04:55:35.356+00:00Z,SEND_PERMIT_ACK_SENT,,,,,,,14,0x55,,,,,,,,,,,,,,,
2025-06-23T04:55:42.369+00:00Z,CTRL_PKT_RECV,16,,,0x50,,,,,,,,,,,,,,,,,,,
2025-06-23T04:55:42.380+00:00Z,SEND_PERMIT_ACK_SENT,,,,,,,16,0x55,,,,,,,,,,,,,,,
2025-06-23T04:55:45.924+00:00Z,DATA_FRAME_RECV,16,-102,,,33,32,,,,,,,,,,,,,,,,,
2025-06-23T04:55:45.936+00:00Z,DATA_ACK_SENT,,,,,,,16,0xaa,,,,,,,,,,,,,,,
2025-06-23T04:55:45.940+00:00Z,DECODE_SUCCESS,16,-102,,,,,,,True,4937,1750654541.0,-0.307,-0.541,0.798,-0.2,0.1,0.0,-33.9,17.6,26.5,36.04482650756836,128.0216827392578,96.8
2025-06-23T04:55:49.265+00:00Z,CTRL_PKT_RECV,17,,,0x50,,,,,,,,,,,,,,,,,,,
2025-06-23T04:55:49.276+00:00Z,SEND_PERMIT_ACK_SENT,,,,,,,17,0x55,,,,,,,,,,,,,,,
2025-06-23T04:55:56.284+00:00Z,CTRL_PKT_RECV,19,,,0x50,,,,,,,,,,,,,,,,,,,
2025-06-23T04:55:56.296+00:00Z,SEND_PERMIT_ACK_SENT,,,,,,,19,0x55,,,,,,,,,,,,,,,
2025-06-23T04:55:59.839+00:00Z,DATA_FRAME_RECV,19,-102,,,33,32,,,,,,,,,,,,,,,,,
2025-06-23T04:55:59.848+00:00Z,DATA_ACK_SENT,,,,,,,19,0xaa,,,,,,,,,,,,,,,
2025-06-23T04:55:59.850+00:00Z,DECODE_SUCCESS,19,-102,,,,,,,True,4849,1750654555.0,-0.305,-0.541,0.8,-0.3,0.3,-0.3,-33.9,17.6,26.5,37.30925369262695,127.93704986572266,38.8
2025-06-23T04:56:03.181+00:00Z,CTRL_PKT_RECV,20,,,0x50,,,,,,,,,,,,,,,,,,,
2025-06-23T04:56:03.192+00:00Z,SEND_PERMIT_ACK_SENT,,,,,,,20,0x55,,,,,,,,,,,,,,,
2025-06-23T04:56:10.205+00:00Z,CTRL_PKT_RECV,22,,,0x50,,,,,,,,,,,,,,,,,,,
2025-06-23T04:56:10.216+00:00Z,SEND_PERMIT_ACK_SENT,,,,,,,22,0x55,,,,,,,,,,,,,,,
2025-06-23T04:56:13.760+00:00Z,DATA_FRAME_RECV,22,-102,,,33,32,,,,,,,,,,,,,,,,,
2025-06-23T04:56:13.772+00:00Z,DATA_ACK_SENT,,,,,,,22,0xaa,,,,,,,,,,,,,,,
2025-06-23T04:56:13.775+00:00Z,DECODE_SUCCESS,22,-102,,,,,,,True,4772,1750654569.0,-0.305,-0.541,0.801,-0.2,0.3,-0.6,-34.0,17.6,26.5,33.26929473876953,126.89563751220703,19.7
2025-06-23T04:56:17.102+00:00Z,CTRL_PKT_RECV,23,,,0x50,,,,,,,,,,,,,,,,,,,
2025-06-23T04:56:17.112+00:00Z,SEND_PERMIT_ACK_SENT,,,,,,,23,0x55,,,,,,,,,,,,,,,
2025-06-23T04:56:24.126+00:00Z,CTRL_PKT_RECV,25,,,0x50,,,,,,,,,,,,,,,,,,,
2025-06-23T04:56:24.136+00:00Z,SEND_PERMIT_ACK_SENT,,,,,,,25,0x55,,,,,,,,,,,,,,,
2025-06-23T04:56:27.681+00:00Z,DATA_FRAME_RECV,25,-102,,,33,32,,,,,,,,,,,,,,,,,
2025-06-23T04:56:27.692+00:00Z,DATA_ACK_SENT,,,,,,,25,0xaa,,,,,,,,,,,,,,,
2025-06-23T04:56:27.696+00:00Z,DECODE_SUCCESS,25,-102,,,,,,,True,4693,1750654583.0,-0.306,-0.54,0.799,0.0,0.3,-0.4,-34.0,17.6,26.5,37.94832992553711,129.23599243164062,0.0
2025-06-23T04:56:31.023+00:00Z,CTRL_PKT_RECV,26,,,0x50,,,,,,,,,,,,,,,,,,,
2025-06-23T04:56:31.036+00:00Z,SEND_PERMIT_ACK_SENT,,,,,,,26,0x55,,,,,,,,,,,,,,,
2025-06-23T04:56:38.047+00:00Z,CTRL_PKT_RECV,28,,,0x50,,,,,,,,,,,,,,,,,,,
2025-06-23T04:56:38.060+00:00Z,SEND_PERMIT_ACK_SENT,,,,,,,28,0x55,,,,,,,,,,,,,,,
2025-06-23T04:56:41.602+00:00Z,DATA_FRAME_RECV,28,-102,,,33,32,,,,,,,,,,,,,,,,,
2025-06-23T04:56:41.612+00:00Z,DATA_ACK_SENT,,,,,,,28,0xaa,,,,,,,,,,,,,,,
2025-06-23T04:56:41.615+00:00Z,DECODE_SUCCESS,28,-102,,,,,,,True,5613,1750654596.0,-0.307,-0.536,0.798,0.0,0.3,0.0,-34.0,17.6,26.4,37.37452697753906,127.75887298583984,93.2
2025-06-23T04:56:44.944+00:00Z,CTRL_PKT_RECV,29,,,0x50,,,,,,,,,,,,,,,,,,,
2025-06-23T04:56:44.956+00:00Z,SEND_PERMIT_ACK_SENT,,,,,,,29,0x55,,,,,,,,,,,,,,,
2025-06-23T04:56:51.968+00:00Z,CTRL_PKT_RECV,31,,,0x50,,,,,,,,,,,,,,,,,,,
2025-06-23T04:56:51.980+00:00Z,SEND_PERMIT_ACK_SENT,,,,,,,31,0x55,,,,,,,,,,,,,,,
2025-06-23T04:56:55.522+00:00Z,DATA_FRAME_RECV,31,-102,,,33,32,,,,,,,,,,,,,,,,,
2025-06-23T04:56:55.532+00:00Z,DATA_ACK_SENT,,,,,,,31,0xaa,,,,,,,,,,,,,,,
2025-06-23T04:56:55.537+00:00Z,DECODE_SUCCESS,31,-102,,,,,,,True,5533,1750654610.0,-0.308,-0.539,0.8,0.4,0.9,-0.1,-34.0,17.6,26.4,33.96984100341797,128.24783325195312,0.0
2025-06-23T04:56:58.865+00:00Z,CTRL_PKT_RECV,32,,,0x50,,,,,,,,,,,,,,,,,,,
2025-06-23T04:56:58.876+00:00Z,SEND_PERMIT_ACK_SENT,,,,,,,32,0x55,,,,,,,,,,,,,,,
2025-06-23T04:57:05.888+00:00Z,CTRL_PKT_RECV,34,,,0x50,,,,,,,,,,,,,,,,,,,
2025-06-23T04:57:05.900+00:00Z,SEND_PERMIT_ACK_SENT,,,,,,,34,0x55,,,,,,,,,,,,,,,
2025-06-23T04:57:09.443+00:00Z,DATA_FRAME_RECV,34,-102,,,33,32,,,,,,,,,,,,,,,,,
2025-06-23T04:57:09.456+00:00Z,DATA_ACK_SENT,,,,,,,34,0xaa,,,,,,,,,,,,,,,
2025-06-23T04:57:09.459+00:00Z,DECODE_SUCCESS,34,-102,,,,,,,True,5456,1750654624.0,-0.305,-0.543,0.799,0.3,0.7,0.2,-34.0,17.6,26.4,33.277400970458984,126.12123107910156,19.2
2025-06-23T04:57:12.786+00:00Z,CTRL_PKT_RECV,35,,,0x50,,,,,,,,,,,,,,,,,,,
2025-06-23T04:57:12.796+00:00Z,SEND_PERMIT_ACK_SENT,,,,,,,35,0x55,,,,,,,,,,,,,,,
2025-06-23T04:57:19.809+00:00Z,CTRL_PKT_RECV,37,,,0x50,,,,,,,,,,,,,,,,,,,
2025-06-23T04:57:19.820+00:00Z,SEND_PERMIT_ACK_SENT,,,,,,,37,0x55,,,,,,,,,,,,,,,
2025-06-23T04:57:23.364+00:00Z,DATA_FRAME_RECV,37,-102,,,33,32,,,,,,,,,,,,,,,,,
2025-06-23T04:57:23.376+00:00Z,DATA_ACK_SENT,,,,,,,37,0xaa,,,,,,,,,,,,,,,
2025-06-23T04:57:23.379+00:00Z,DECODE_SUCCESS,37,-102,,,,,,,True,5377,1750654638.0,-0.303,-0.542,0.799,0.0,0.0,0.4,-34.0,17.6,26.4,33.4451789855957,126.36885833740234,0.0
2025-06-23T04:57:26.706+00:00Z,CTRL_PKT_RECV,38,,,0x50,,,,,,,,,,,,,,,,,,,
2025-06-23T04:57:26.716+00:00Z,SEND_PERMIT_ACK_SENT,,,,,,,38,0x55,,,,,,,,,,,,,,,
2025-06-23T04:57:33.725+00:00Z,CTRL_PKT_RECV,40,,,0x50,,,,,,,,,,,,,,,,,,,
2025-06-23T04:57:33.736+00:00Z,SEND_PERMIT_ACK_SENT,,,,,,,40,0x55,,,,,,,,,,,,,,,
2025-06-23T04:57:37.280+00:00Z,DATA_FRAME_RECV,40,-102,,,33,32,,,,,,,,,,,,,,,,,
2025-06-23T04:57:37.292+00:00Z,DATA_ACK_SENT,,,,,,,40,0xaa,,,,,,,,,,,,,,,
2025-06-23T04:57:37.294+00:00Z,DECODE_SUCCESS,40,-102,,,,,,,True,5292,1750654652.0,-0.304,-0.541,0.802,0.1,-0.4,-0.1,-34.0,17.6,26.4,37.42566680908203,128.03445434570312,15.2
2025-06-23T04:57:40.622+00:00Z,CTRL_PKT_RECV,41,,,0x50,,,,,,,,,,,,,,,,,,,
2025-06-23T04:57:40.632+00:00Z,SEND_PERMIT_ACK_SENT,,,,,,,41,0x55,,,,,,,,,,,,,,,
2025-06-23T04:57:47.646+00:00Z,CTRL_PKT_RECV,43,,,0x50,,,,,,,,,,,,,,,,,,,
2025-06-23T04:57:47.656+00:00Z,SEND_PERMIT_ACK_SENT,,,,,,,43,0x55,,,,,,,,,,,,,,,
2025-06-23T04:57:51.201+00:00Z,DATA_FRAME_RECV,43,-102,,,33,32,,,,,,,,,,,,,,,,,
2025-06-23T04:57:51.212+00:00Z,DATA_ACK_SENT,,,,,,,43,0xaa,,,,,,,,,,,,,,,
2025-06-23T04:57:51.215+00:00Z,DECODE_SUCCESS,43,-102,,,,,,,True,5213,1750654666.0,-0.305,-0.541,0.799,-0.3,-1.2,0.3,-34.0,17.6,26.4,37.65129852294922,127.41249084472656,0.0
2025-06-23T04:57:54.544+00:00Z,CTRL_PKT_RECV,44,,,0x50,,,,,,,,,,,,,,,,,,,
2025-06-23T04:57:54.556+00:00Z,SEND_PERMIT_ACK_SENT,,,,,,,44,0x55,,,,,,,,,,,,,,,
2025-06-23T04:58:01.567+00:00Z,CTRL_PKT_RECV,46,,,0x50,,,,,,,,,,,,,,,,,,,
2025-06-23T04:58:01.580+00:00Z,SEND_PERMIT_ACK_SENT,,,,,,,46,0x55,,,,,,,,,,,,,,,
2025-06-23T04:58:05.122+00:00Z,DATA_FRAME_RECV,46,-102,,,33,32,,,,,,,,,,,,,,,,,
2025-06-23T04:58:05.132+00:00Z,DATA_ACK_SENT,,,,,,,46,0xaa,,,,,,,,,,,,,,,
2025-06-23T04:58:05.136+00:00Z,DECODE_SUCCESS,46,-102,,,,,,,True,5133,1750654680.0,-0.308,-0.538,0.799,0.0,-1.2,0.4,-34.0,17.6,26.5,33.15028381347656,129.53829956054688,0.0
2025-06-23T04:58:08.463+00:00Z,CTRL_PKT_RECV,47,,,0x50,,,,,,,,,,,,,,,,,,,
2025-06-23T04:58:08.476+00:00Z,SEND_PERMIT_ACK_SENT,,,,,,,47,0x55,,,,,,,,,,,,,,,
2025-06-23T04:58:15.487+00:00Z,CTRL_PKT_RECV,49,,,0x50,,,,,,,,,,,,,,,,,,,
2025-06-23T04:58:15.500+00:00Z,SEND_PERMIT_ACK_SENT,,,,,,,49,0x55,,,,,,,,,,,,,,,
2025-06-23T04:58:19.043+00:00Z,DATA_FRAME_RECV,49,-102,,,33,32,,,,,,,,,,,,,,,,,
2025-06-23T04:58:19.056+00:00Z,DATA_ACK_SENT,,,,,,,49,0xaa,,,,,,,,,,,,,,,
2025-06-23T04:58:19.059+00:00Z,DECODE_SUCCESS,49,-102,,,,,,,True,5057,1750654694.0,-0.309,-0.54,0.797,0.3,-0.6,0.7,-33.9,17.6,26.5,35.267845153808594,126.5510482788086,0.0
2025-06-23T04:58:22.385+00:00Z,CTRL_PKT_RECV,50,,,0x50,,,,,,,,,,,,,,,,,,,
2025-06-23T04:58:22.396+00:00Z,SEND_PERMIT_ACK_SENT,,,,,,,50,0x55,,,,,,,,,,,,,,,
2025-06-23T04:58:29.409+00:00Z,CTRL_PKT_RECV,52,,,0x50,,,,,,,,,,,,,,,,,,,
2025-06-23T04:58:29.420+00:00Z,SEND_PERMIT_ACK_SENT,,,,,,,52,0x55,,,,,,,,,,,,,,,
2025-06-23T04:58:32.964+00:00Z,DATA_FRAME_RECV,52,-102,,,33,32,,,,,,,,,,,,,,,,,
2025-06-23T04:58:32.976+00:00Z,DATA_ACK_SENT,,,,,,,52,0xaa,,,,,,,,,,,,,,,
2025-06-23T04:58:32.979+00:00Z,DECODE_SUCCESS,52,-102,,,,,,,True,4977,1750654708.0,-0.308,-0.541,0.798,0.6,0.1,0.7,-33.9,17.6,26.5,35.44267272949219,128.9837646484375,93.4
2025-06-23T04:58:36.306+00:00Z,CTRL_PKT_RECV,53,,,0x50,,,,,,,,,,,,,,,,,,,
2025-06-23T04:58:36.316+00:00Z,SEND_PERMIT_ACK_SENT,,,,,,,53,0x55,,,,,,,,,,,,,,,
2025-06-23T04:58:43.329+00:00Z,CTRL_PKT_RECV,55,,,0x50,,,,,,,,,,,,,,,,,,,
2025-06-23T04:58:43.340+00:00Z,SEND_PERMIT_ACK_SENT,,,,,,,55,0x55,,,,,,,,,,,,,,,
2025-06-23T04:58:46.884+00:00Z,DATA_FRAME_RECV,55,-102,,,33,32,,,,,,,,,,,,,,,,,
2025-06-23T04:58:46.896+00:00Z,DATA_ACK_SENT,,,,,,,55,0xaa,,,,,,,,,,,,,,,
2025-06-23T04:58:46.898+00:00Z,DECODE_SUCCESS,55,-102,,,,,,,True,4897,1750654722.0,-0.306,-0.542,0.798,0.4,0.6,0.3,-33.9,17.6,26.5,35.044578552246094,127.82768249511719,0.0
2025-06-23T04:58:50.226+00:00Z,CTRL_PKT_RECV,56,,,0x50,,,,,,,,,,,,,,,,,,,
2025-06-23T04:58:50.236+00:00Z,SEND_PERMIT_ACK_SENT,,,,,,,56,0x55,,,,,,,,,,,,,,,
2025-06-23T04:58:57.249+00:00Z,CTRL_PKT_RECV,58,,,0x50,,,,,,,,,,,,,,,,,,,
2025-06-23T04:58:57.260+00:00Z,SEND_PERMIT_ACK_SENT,,,,,,,58,0x55,,,,,,,,,,,,,,,
2025-06-23T04:59:00.804+00:00Z,DATA_FRAME_RECV,58,-102,,,33,32,,,,,,,,,,,,,,,,,
2025-06-23T04:59:00.816+00:00Z,DATA_ACK_SENT,,,,,,,58,0xaa,,,,,,,,,,,,,,,
2025-06-23T04:59:00.818+00:00Z,DECODE_SUCCESS,58,-102,,,,,,,True,4816,1750654736.0,-0.306,-0.543,0.801,0.0,0.6,-0.1,-33.9,17.6,26.5,36.85367202758789,129.60714721679688,0.0
2025-06-23T04:59:04.146+00:00Z,CTRL_PKT_RECV,59,,,0x50,,,,,,,,,,,,,,,,,,,
2025-06-23T04:59:04.156+00:00Z,SEND_PERMIT_ACK_SENT,,,,,,,59,0x55,,,,,,,,,,,,,,,
2025-06-23T04:59:11.170+00:00Z,CTRL_PKT_RECV,61,,,0x50,,,,,,,,,,,,,,,,,,,
2025-06-23T04:59:11.180+00:00Z,SEND_PERMIT_ACK_SENT,,,,,,,61,0x55,,,,,,,,,,,,,,,
2025-06-23T04:59:14.725+00:00Z,DATA_FRAME_RECV,61,-102,,,33,32,,,,,,,,,,,,,,,,,
2025-06-23T04:59:14.736+00:00Z,DATA_ACK_SENT,,,,,,,61,0xaa,,,,,,,,,,,,,,,
2025-06-23T04:59:14.740+00:00Z,DECODE_SUCCESS,61,-102,,,,,,,True,4737,1750654750.0,-0.307,-0.541,0.799,-0.3,0.4,-0.8,-33.9,17.6,26.5,36.08268737792969,127.15355682373047,0.0
2025-06-23T04:59:18.068+00:00Z,CTRL_PKT_RECV,62,,,0x50,,,,,,,,,,,,,,,,,,,
2025-06-23T04:59:18.080+00:00Z,SEND_PERMIT_ACK_SENT,,,,,,,62,0x55,,,,,,,,,,,,,,,
2025-06-23T04:59:25.089+00:00Z,CTRL_PKT_RECV,64,,,0x50,,,,,,,,,,,,,,,,,,,
2025-06-23T04:59:25.100+00:00Z,SEND_PERMIT_ACK_SENT,,,,,,,64,0x55,,,,,,,,,,,,,,,
2025-06-23T04:59:28.644+00:00Z,DATA_FRAME_RECV,64,-102,,,33,32,,,,,,,,,,,,,,,,,
2025-06-23T04:59:28.656+00:00Z,DATA_ACK_SENT,,,,,,,64,0xaa,,,,,,,,,,,,,,,
2025-06-23T04:59:28.658+00:00Z,DECODE_SUCCESS,64,-102,,,,,,,True,5656,1750654763.0,-0.307,-0.538,0.799,-0.6,0.0,-0.9,-34.0,17.6,26.5,34.48996353149414,128.25669860839844,0.0
2025-06-23T04:59:31.986+00:00Z,CTRL_PKT_RECV,65,,,0x50,,,,,,,,,,,,,,,,,,,
2025-06-23T04:59:31.996+00:00Z,SEND_PERMIT_ACK_SENT,,,,,,,65,0x55,,,,,,,,,,,,,,,
2025-06-23T04:59:39.007+00:00Z,CTRL_PKT_RECV,67,,,0x50,,,,,,,,,,,,,,,,,,,
2025-06-23T04:59:39.020+00:00Z,SEND_PERMIT_ACK_SENT,,,,,,,67,0x55,,,,,,,,,,,,,,,
2025-06-23T04:59:42.562+00:00Z,DATA_FRAME_RECV,67,-102,,,33,32,,,,,,,,,,,,,,,,,
2025-06-23T04:59:42.572+00:00Z,DATA_ACK_SENT,,,,,,,67,0xaa,,,,,,,,,,,,,,,
2025-06-23T04:59:42.574+00:00Z,DECODE_SUCCESS,67,-102,,,,,,,True,5572,1750654777.0,-0.306,-0.538,0.797,-0.5,0.0,-0.5,-34.0,17.6,26.5,35.11012649536133,128.39561462402344,0.0
2025-06-23T04:59:45.904+00:00Z,CTRL_PKT_RECV,68,,,0x50,,,,,,,,,,,,,,,,,,,
2025-06-23T04:59:45.916+00:00Z,SEND_PERMIT_ACK_SENT,,,,,,,68,0x55,,,,,,,,,,,,,,,
2025-06-23T04:59:52.927+00:00Z,CTRL_PKT_RECV,70,,,0x50,,,,,,,,,,,,,,,,,,,
2025-06-23T04:59:52.940+00:00Z,SEND_PERMIT_ACK_SENT,,,,,,,70,0x55,,,,,,,,,,,,,,,
2025-06-23T04:59:56.482+00:00Z,DATA_FRAME_RECV,70,-102,,,33,32,,,,,,,,,,,,,,,,,
2025-06-23T04:59:56.492+00:00Z,DATA_ACK_SENT,,,,,,,70,0xaa,,,,,,,,,,,,,,,
2025-06-23T04:59:56.494+00:00Z,DECODE_SUCCESS,70,-102,,,,,,,True,5492,1750654791.0,-0.307,-0.54,0.798,0.1,0.5,-0.4,-34.0,17.6,26.4,35.80158233642578,127.56859588623047,0.0
2025-06-23T04:59:59.824+00:00Z,CTRL_PKT_RECV,71,,,0x50,,,,,,,,,,,,,,,,,,,
2025-06-23T04:59:59.836+00:00Z,SEND_PERMIT_ACK_SENT,,,,,,,71,0x55,,,,,,,,,,,,,,,
2025-06-23T05:00:06.848+00:00Z,CTRL_PKT_RECV,73,,,0x50,,,,,,,,,,,,,,,,,,,
2025-06-23T05:00:06.860+00:00Z,SEND_PERMIT_ACK_SENT,,,,,,,73,0x55,,,,,,,,,,,,,,,
2025-06-23T05:00:10.403+00:00Z,DATA_FRAME_RECV,73,-102,,,33,32,,,,,,,,,,,,,,,,,
2025-06-23T05:00:10.416+00:00Z,DATA_ACK_SENT,,,,,,,73,0xaa,,,,,,,,,,,,,,,
2025-06-23T05:00:10.419+00:00Z,DECODE_SUCCESS,73,-102,,,,,,,True,5417,1750654805.0,-0.305,-0.538,0.796,0.2,0.6,0.2,-34.0,17.6,26.4,37.428199768066406,127.4205093383789,81.1
2025-06-23T05:00:13.746+00:00Z,CTRL_PKT_RECV,74,,,0x50,,,,,,,,,,,,,,,,,,,
2025-06-23T05:00:13.756+00:00Z,SEND_PERMIT_ACK_SENT,,,,,,,74,0x55,,,,,,,,,,,,,,,
2025-06-23T05:00:20.768+00:00Z,CTRL_PKT_RECV,76,,,0x50,,,,,,,,,,,,,,,,,,,
2025-06-23T05:00:20.780+00:00Z,SEND_PERMIT_ACK_SENT,,,,,,,76,0x55,,,,,,,,,,,,,,,
2025-06-23T05:00:24.323+00:00Z,DATA_FRAME_RECV,76,-102,,,33,32,,,,,,,,,,,,,,,,,
2025-06-23T05:00:24.336+00:00Z,DATA_ACK_SENT,,,,,,,76,0xaa,,,,,,,,,,,,,,,
2025-06-23T05:00:24.339+00:00Z,DECODE_SUCCESS,76,-102,,,,,,,True,5337,1750654819.0,-0.305,-0.54,0.797,0.4,0.4,0.4,-34.0,17.6,26.4,37.97975158691406,129.4398651123047,0.0
2025-06-23T05:00:27.668+00:00Z,CTRL_PKT_RECV,77,,,0x50,,,,,,,,,,,,,,,,,,,
2025-06-23T05:00:27.680+00:00Z,SEND_PERMIT_ACK_SENT,,,,,,,77,0x55,,,,,,,,,,,,,,,
2025-06-23T05:00:34.689+00:00Z,CTRL_PKT_RECV,79,,,0x50,,,,,,,,,,,,,,,,,,,
2025-06-23T05:00:34.700+00:00Z,SEND_PERMIT_ACK_SENT,,,,,,,79,0x55,,,,,,,,,,,,,,,
2025-06-23T05:00:38.244+00:00Z,DATA_FRAME_RECV,79,-102,,,33,32,,,,,,,,,,,,,,,,,
2025-06-23T05:00:38.256+00:00Z,DATA_ACK_SENT,,,,,,,79,0xaa,,,,,,,,,,,,,,,
2025-06-23T05:00:38.259+00:00Z,DECODE_SUCCESS,79,-102,,,,,,,True,5257,1750654833.0,-0.304,-0.542,0.801,0.3,0.1,0.3,-34.0,17.6,26.4,35.651885986328125,128.5272979736328,47.6
2025-06-23T05:00:41.586+00:00Z,CTRL_PKT_RECV,80,,,0x50,,,,,,,,,,,,,,,,,,,
2025-06-23T05:00:41.596+00:00Z,SEND_PERMIT_ACK_SENT,,,,,,,80,0x55,,,,,,,,,,,,,,,
2025-06-23T05:00:48.610+00:00Z,CTRL_PKT_RECV,82,,,0x50,,,,,,,,,,,,,,,,,,,
2025-06-23T05:00:48.620+00:00Z,SEND_PERMIT_ACK_SENT,,,,,,,82,0x55,,,,,,,,,,,,,,,
2025-06-23T05:00:52.165+00:00Z,DATA_FRAME_RECV,82,-102,,,33,32,,,,,,,,,,,,,,,,,
2025-06-23T05:00:52.176+00:00Z,DATA_ACK_SENT,,,,,,,82,0xaa,,,,,,,,,,,,,,,
2025-06-23T05:00:52.179+00:00Z,DECODE_SUCCESS,82,-102,,,,,,,True,5177,1750654847.0,-0.303,-0.544,0.796,0.0,0.0,0.0,-34.0,17.6,26.4,35.611881256103516,128.65638732910156,0.0
2025-06-23T05:00:55.508+00:00Z,CTRL_PKT_RECV,83,,,0x50,,,,,,,,,,,,,,,,,,,
2025-06-23T05:00:55.520+00:00Z,SEND_PERMIT_ACK_SENT,,,,,,,83,0x55,,,,,,,,,,,,,,,
2025-06-23T05:01:02.534+00:00Z,CTRL_PKT_RECV,85,,,0x50,,,,,,,,,,,,,,,,,,,
2025-06-23T05:01:02.544+00:00Z,SEND_PERMIT_ACK_SENT,,,,,,,85,0x55,,,,,,,,,,,,,,,
2025-06-23T05:01:06.089+00:00Z,DATA_FRAME_RECV,85,-102,,,33,32,,,,,,,,,,,,,,,,,
2025-06-23T05:01:06.100+00:00Z,DATA_ACK_SENT,,,,,,,85,0xaa,,,,,,,,,,,,,,,
2025-06-23T05:01:06.103+00:00Z,DECODE_SUCCESS,85,-102,,,,,,,True,5101,1750654861.0,-0.306,-0.541,0.797,-0.1,0.0,-0.3,-34.0,17.6,26.4,36.13117980957031,128.5182342529297,0.0
2025-06-23T05:01:09.431+00:00Z,CTRL_PKT_RECV,86,,,0x50,,,,,,,,,,,,,,,,,,,
2025-06-23T05:01:09.444+00:00Z,SEND_PERMIT_ACK_SENT,,,,,,,86,0x55,,,,,,,,,,,,,,,
2025-06-23T05:01:16.455+00:00Z,CTRL_PKT_RECV,88,,,0x50,,,,,,,,,,,,,,,,,,,
2025-06-23T05:01:16.468+00:00Z,SEND_PERMIT_ACK_SENT,,,,,,,88,0x55,,,,,,,,,,,,,,,
2025-06-23T05:01:20.010+00:00Z,DATA_FRAME_RECV,88,-101,,,33,32,,,,,,,,,,,,,,,,,
2025-06-23T05:01:20.020+00:00Z,DATA_ACK_SENT,,,,,,,88,0xaa,,,,,,,,,,,,,,,
2025-06-23T05:01:20.023+00:00Z,DECODE_SUCCESS,88,-101,,,,,,,True,5021,1750654875.0,-0.308,-0.538,0.798,-0.1,0.1,-0.3,-34.0,17.6,26.4,34.507545471191406,127.43367004394531,0.0
2025-06-23T05:01:23.351+00:00Z,CTRL_PKT_RECV,89,,,0x50,,,,,,,,,,,,,,,,,,,
2025-06-23T05:01:23.364+00:00Z,SEND_PERMIT_ACK_SENT,,,,,,,89,0x55,,,,,,,,,,,,,,,
2025-06-23T05:01:30.375+00:00Z,CTRL_PKT_RECV,91,,,0x50,,,,,,,,,,,,,,,,,,,
2025-06-23T05:01:30.388+00:00Z,SEND_PERMIT_ACK_SENT,,,,,,,91,0x55,,,,,,,,,,,,,,,
2025-06-23T05:01:33.930+00:00Z,DATA_FRAME_RECV,91,-102,,,33,32,,,,,,,,,,,,,,,,,
2025-06-23T05:01:33.940+00:00Z,DATA_ACK_SENT,,,,,,,91,0xaa,,,,,,,,,,,,,,,
2025-06-23T05:01:33.942+00:00Z,DECODE_SUCCESS,91,-102,,,,,,,True,4940,1750654889.0,-0.309,-0.54,0.797,0.0,0.1,0.0,-34.0,17.6,26.4,36.23537826538086,128.02066040039062,0.0
2025-06-23T05:01:38.762+00:00Z,CTRL_PKT_RECV,92,,,0x50,,,,,,,,,,,,,,,,,,,
2025-06-23T05:01:38.772+00:00Z,SEND_PERMIT_ACK_SENT,,,,,,,92,0x55,,,,,,,,,,,,,,,
2025-06-23T05:01:42.317+00:00Z,DATA_FRAME_RECV,92,-102,,,33,32,,,,,,,,,,,,,,,,,
2025-06-23T05:01:42.328+00:00Z,DATA_ACK_SENT,,,,,,,92,0xaa,,,,,,,,,,,,,,,
2025-06-23T05:01:42.332+00:00Z,DECODE_SUCCESS,92,-102,,,,,,,True,5329,1750654897.0,-0.307,-0.538,0.801,0.0,0.2,0.0,-34.0,17.6,26.4,37.24619674682617,126.87173461914062,0.0
2025-06-23T05:01:45.659+00:00Z,CTRL_PKT_RECV,93,,,0x50,,,,,,,,,,,,,,,,,,,
2025-06-23T05:01:45.672+00:00Z,SEND_PERMIT_ACK_SENT,,,,,,,93,0x55,,,,,,,,,,,,,,,
2025-06-23T05:01:52.688+00:00Z,CTRL_PKT_RECV,95,,,0x50,,,,,,,,,,,,,,,,,,,
2025-06-23T05:01:52.700+00:00Z,SEND_PERMIT_ACK_SENT,,,,,,,95,0x55,,,,,,,,,,,,,,,
2025-06-23T05:01:56.244+00:00Z,DATA_FRAME_RECV,95,-102,,,33,32,,,,,,,,,,,,,,,,,
2025-06-23T05:01:56.256+00:00Z,DATA_ACK_SENT,,,,,,,95,0xaa,,,,,,,,,,,,,,,
2025-06-23T05:01:56.260+00:00Z,DECODE_SUCCESS,95,-102,,,,,,,True,5257,1750654911.0,-0.306,-0.542,0.798,0.1,0.1,0.1,-34.0,17.6,26.4,36.27837371826172,126.00047302246094,0.0
2025-06-23T05:01:59.587+00:00Z,CTRL_PKT_RECV,96,,,0x50,,,,,,,,,,,,,,,,,,,
2025-06-23T05:01:59.600+00:00Z,SEND_PERMIT_ACK_SENT,,,,,,,96,0x55,,,,,,,,,,,,,,,
2025-06-23T05:02:06.607+00:00Z,CTRL_PKT_RECV,98,,,0x50,,,,,,,,,,,,,,,,,,,
2025-06-23T05:02:06.620+00:00Z,SEND_PERMIT_ACK_SENT,,,,,,,98,0x55,,,,,,,,,,,,,,,
2025-06-23T05:02:10.162+00:00Z,DATA_FRAME_RECV,98,-102,,,33,32,,,,,,,,,,,,,,,,,
2025-06-23T05:02:10.172+00:00Z,DATA_ACK_SENT,,,,,,,98,0xaa,,,,,,,,,,,,,,,
2025-06-23T05:02:10.174+00:00Z,DECODE_SUCCESS,98,-102,,,,,,,True,5173,1750654925.0,-0.305,-0.541,0.802,0.0,0.0,0.0,-34.0,17.6,26.4,37.070682525634766,128.42654418945312,0.0
2025-06-23T05:02:13.505+00:00Z,CTRL_PKT_RECV,99,,,0x50,,,,,,,,,,,,,,,,,,,
2025-06-23T05:02:13.516+00:00Z,SEND_PERMIT_ACK_SENT,,,,,,,99,0x55,,,,,,,,,,,,,,,
2025-06-23T05:02:20.528+00:00Z,CTRL_PKT_RECV,101,,,0x50,,,,,,,,,,,,,,,,,,,
2025-06-23T05:02:20.540+00:00Z,SEND_PERMIT_ACK_SENT,,,,,,,101,0x55,,,,,,,,,,,,,,,
2025-06-23T05:02:24.083+00:00Z,DATA_FRAME_RECV,101,-102,,,33,32,,,,,,,,,,,,,,,,,
2025-06-23T05:02:24.096+00:00Z,DATA_ACK_SENT,,,,,,,101,0xaa,,,,,,,,,,,,,,,
2025-06-23T05:02:24.098+00:00Z,DECODE_SUCCESS,101,-102,,,,,,,True,5096,1750654939.0,-0.306,-0.54,0.801,0.0,-0.5,0.4,-34.0,17.6,26.4,35.261409759521484,126.91720581054688,94.8
2025-06-23T05:02:27.426+00:00Z,CTRL_PKT_RECV,102,,,0x50,,,,,,,,,,,,,,,,,,,
2025-06-23T05:02:27.436+00:00Z,SEND_PERMIT_ACK_SENT,,,,,,,102,0x55,,,,,,,,,,,,,,,
2025-06-23T05:02:34.449+00:00Z,CTRL_PKT_RECV,104,,,0x50,,,,,,,,,,,,,,,,,,,
2025-06-23T05:02:34.460+00:00Z,SEND_PERMIT_ACK_SENT,,,,,,,104,0x55,,,,,,,,,,,,,,,
2025-06-23T05:02:38.004+00:00Z,DATA_FRAME_RECV,104,-102,,,33,32,,,,,,,,,,,,,,,,,
2025-06-23T05:02:38.016+00:00Z,DATA_ACK_SENT,,,,,,,104,0xaa,,,,,,,,,,,,,,,
2025-06-23T05:02:38.019+00:00Z,DECODE_SUCCESS,104,-102,,,,,,,True,5016,1750654953.0,-0.305,-0.539,0.797,0.2,-0.7,0.6,-34.0,17.6,26.4,36.074771881103516,129.17457580566406,0.0
2025-06-23T05:02:41.347+00:00Z,CTRL_PKT_RECV,105,,,0x50,,,,,,,,,,,,,,,,,,,
2025-06-23T05:02:41.360+00:00Z,SEND_PERMIT_ACK_SENT,,,,,,,105,0x55,,,,,,,,,,,,,,,
2025-06-23T05:02:48.368+00:00Z,CTRL_PKT_RECV,107,,,0x50,,,,,,,,,,,,,,,,,,,
2025-06-23T05:02:48.380+00:00Z,SEND_PERMIT_ACK_SENT,,,,,,,107,0x55,,,,,,,,,,,,,,,
2025-06-23T05:02:51.922+00:00Z,DATA_FRAME_RECV,107,-101,,,33,32,,,,,,,,,,,,,,,,,
2025-06-23T05:02:51.932+00:00Z,DATA_ACK_SENT,,,,,,,107,0xaa,,,,,,,,,,,,,,,
2025-06-23T05:02:51.935+00:00Z,DECODE_SUCCESS,107,-101,,,,,,,True,4932,1750654967.0,-0.306,-0.541,0.799,0.3,-0.7,0.7,-34.0,17.6,26.5,35.99448013305664,129.06475830078125,0.0
2025-06-23T05:02:55.264+00:00Z,CTRL_PKT_RECV,108,,,0x50,,,,,,,,,,,,,,,,,,,
2025-06-23T05:02:55.276+00:00Z,SEND_PERMIT_ACK_SENT,,,,,,,108,0x55,,,,,,,,,,,,,,,
2025-06-23T05:03:02.280+00:00Z,CTRL_PKT_RECV,110,,,0x50,,,,,,,,,,,,,,,,,,,
2025-06-23T05:03:02.292+00:00Z,SEND_PERMIT_ACK_SENT,,,,,,,110,0x55,,,,,,,,,,,,,,,
2025-06-23T05:03:05.835+00:00Z,DATA_FRAME_RECV,110,-102,,,33,32,,,,,,,,,,,,,,,,,
2025-06-23T05:03:05.848+00:00Z,DATA_ACK_SENT,,,,,,,110,0xaa,,,,,,,,,,,,,,,
2025-06-23T05:03:05.851+00:00Z,DECODE_SUCCESS,110,-102,,,,,,,True,4848,1750654981.0,-0.307,-0.541,0.8,0.1,-0.6,0.6,-33.9,17.6,26.5,35.9777717590332,127.86267852783203,0.0
2025-06-23T05:03:09.177+00:00Z,CTRL_PKT_RECV,111,,,0x50,,,,,,,,,,,,,,,,,,,
2025-06-23T05:03:09.188+00:00Z,SEND_PERMIT_ACK_SENT,,,,,,,111,0x55,,,,,,,,,,,,,,,
2025-06-23T05:03:16.197+00:00Z,CTRL_PKT_RECV,113,,,0x50,,,,,,,,,,,,,,,,,,,
2025-06-23T05:03:16.208+00:00Z,SEND_PERMIT_ACK_SENT,,,,,,,113,0x55,,,,,,,,,,,,,,,
2025-06-23T05:03:19.752+00:00Z,DATA_FRAME_RECV,113,-102,,,33,32,,,,,,,,,,,,,,,,,
2025-06-23T05:03:19.764+00:00Z,DATA_ACK_SENT,,,,,,,113,0xaa,,,,,,,,,,,,,,,
2025-06-23T05:03:19.767+00:00Z,DECODE_SUCCESS,113,-102,,,,,,,True,4765,1750654995.0,-0.308,-0.542,0.797,0.0,-0.1,0.2,-33.9,17.6,26.5,37.34123229980469,129.5140838623047,73.6
2025-06-23T05:03:23.095+00:00Z,CTRL_PKT_RECV,114,,,0x50,,,,,,,,,,,,,,,,,,,
2025-06-23T05:03:23.108+00:00Z,SEND_PERMIT_ACK_SENT,,,,,,,114,0x55,,,,,,,,,,,,,,,
2025-06-23T05:03:30.117+00:00Z,CTRL_PKT_RECV,116,,,0x50,,,,,,,,,,,,,,,,,,,
2025-06-23T05:03:30.128+00:00Z,SEND_PERMIT_ACK_SENT,,,,,,,116,0x55,,,,,,,,,,,,,,,
2025-06-23T05:03:33.672+00:00Z,DATA_FRAME_RECV,116,-102,,,33,32,,,,,,,,,,,,,,,,,
2025-06-23T05:03:33.684+00:00Z,DATA_ACK_SENT,,,,,,,116,0xaa,,,,,,,,,,,,,,,
2025-06-23T05:03:33.687+00:00Z,DECODE_SUCCESS,116,-102,,,,,,,True,5685,1750655008.0,-0.305,-0.541,0.799,0.3,0.7,-0.4,-33.9,17.6,26.5,37.06552505493164,128.76376342773438,97.4
2025-06-23T05:03:37.014+00:00Z,CTRL_PKT_RECV,117,,,0x50,,,,,,,,,,,,,,,,,,,
2025-06-23T05:03:37.024+00:00Z,SEND_PERMIT_ACK_SENT,,,,,,,117,0x55,,,,,,,,,,,,,,,
2025-06-23T05:03:44.037+00:00Z,CTRL_PKT_RECV,119,,,0x50,,,,,,,,,,,,,,,,,,,
2025-06-23T05:03:44.048+00:00Z,SEND_PERMIT_ACK_SENT,,,,,,,119,0x55,,,,,,,,,,,,,,,
2025-06-23T05:03:47.592+00:00Z,DATA_FRAME_RECV,119,-102,,,33,32,,,,,,,,,,,,,,,,,
2025-06-23T05:03:47.604+00:00Z,DATA_ACK_SENT,,,,,,,119,0xaa,,,,,,,,,,,,,,,
2025-06-23T05:03:47.607+00:00Z,DECODE_SUCCESS,119,-102,,,,,,,True,5605,1750655022.0,-0.308,-0.542,0.798,0.0,0.9,-0.3,-33.9,17.6,26.5,34.31000518798828,129.79725646972656,0.0
2025-06-23T05:03:50.934+00:00Z,CTRL_PKT_RECV,120,,,0x50,,,,,,,,,,,,,,,,,,,
2025-06-23T05:03:50.948+00:00Z,SEND_PERMIT_ACK_SENT,,,,,,,120,0x55,,,,,,,,,,,,,,,
2025-06-23T05:03:57.958+00:00Z,CTRL_PKT_RECV,122,,,0x50,,,,,,,,,,,,,,,,,,,
2025-06-23T05:03:57.968+00:00Z,SEND_PERMIT_ACK_SENT,,,,,,,122,0x55,,,,,,,,,,,,,,,
2025-06-23T05:04:01.513+00:00Z,DATA_FRAME_RECV,122,-102,,,33,32,,,,,,,,,,,,,,,,,
2025-06-23T05:04:01.524+00:00Z,DATA_ACK_SENT,,,,,,,122,0xaa,,,,,,,,,,,,,,,
2025-06-23T05:04:01.528+00:00Z,DECODE_SUCCESS,122,-102,,,,,,,True,5525,1750655036.0,-0.306,-0.541,0.799,-0.1,1.2,-0.5,-34.0,17.6,26.5,34.631591796875,127.39940643310547,0.0
2025-06-23T05:04:04.854+00:00Z,CTRL_PKT_RECV,123,,,0x50,,,,,,,,,,,,,,,,,,,
2025-06-23T05:04:04.864+00:00Z,SEND_PERMIT_ACK_SENT,,,,,,,123,0x55,,,,,,,,,,,,,,,
2025-06-23T05:04:11.879+00:00Z,CTRL_PKT_RECV,125,,,0x50,,,,,,,,,,,,,,,,,,,
2025-06-23T05:04:11.892+00:00Z,SEND_PERMIT_ACK_SENT,,,,,,,125,0x55,,,,,,,,,,,,,,,
2025-06-23T05:04:15.434+00:00Z,DATA_FRAME_RECV,125,-102,,,33,32,,,,,,,,,,,,,,,,,
2025-06-23T05:04:15.444+00:00Z,DATA_ACK_SENT,,,,,,,125,0xaa,,,,,,,,,,,,,,,
2025-06-23T05:04:15.446+00:00Z,DECODE_SUCCESS,125,-102,,,,,,,True,5444,1750655050.0,-0.304,-0.542,0.801,-0.2,1.0,-0.7,-34.0,17.6,26.5,37.59368896484375,127.785400390625,0.0
2025-06-23T05:04:18.776+00:00Z,CTRL_PKT_RECV,126,,,0x50,,,,,,,,,,,,,,,,,,,
2025-06-23T05:04:18.788+00:00Z,SEND_PERMIT_ACK_SENT,,,,,,,126,0x55,,,,,,,,,,,,,,,
2025-06-23T05:04:25.800+00:00Z,CTRL_PKT_RECV,128,,,0x50,,,,,,,,,,,,,,,,,,,
2025-06-23T05:04:25.812+00:00Z,SEND_PERMIT_ACK_SENT,,,,,,,128,0x55,,,,,,,,,,,,,,,
2025-06-23T05:04:29.355+00:00Z,DATA_FRAME_RECV,128,-102,,,33,32,,,,,,,,,,,,,,,,,
2025-06-23T05:04:29.368+00:00Z,DATA_ACK_SENT,,,,,,,128,0xaa,,,,,,,,,,,,,,,
2025-06-23T05:04:29.371+00:00Z,DECODE_SUCCESS,128,-102,,,,,,,True,5369,1750655064.0,-0.305,-0.542,0.799,-0.2,0.5,-0.8,-34.0,17.6,26.5,34.111114501953125,127.59867858886719,0.0
2025-06-23T05:04:32.697+00:00Z,CTRL_PKT_RECV,129,,,0x50,,,,,,,,,,,,,,,,,,,
2025-06-23T05:04:32.708+00:00Z,SEND_PERMIT_ACK_SENT,,,,,,,129,0x55,,,,,,,,,,,,,,,
2025-06-23T05:04:39.718+00:00Z,CTRL_PKT_RECV,131,,,0x50,,,,,,,,,,,,,,,,,,,
2025-06-23T05:04:39.728+00:00Z,SEND_PERMIT_ACK_SENT,,,,,,,131,0x55,,,,,,,,,,,,,,,
2025-06-23T05:04:43.273+00:00Z,DATA_FRAME_RECV,131,-102,,,33,32,,,,,,,,,,,,,,,,,
2025-06-23T05:04:43.284+00:00Z,DATA_ACK_SENT,,,,,,,131,0xaa,,,,,,,,,,,,,,,
2025-06-23T05:04:43.288+00:00Z,DECODE_SUCCESS,131,-102,,,,,,,True,5285,1750655078.0,-0.304,-0.54,0.799,-0.5,-0.3,-0.1,-34.0,17.6,26.5,37.39194107055664,128.806640625,94.9
2025-06-23T05:04:46.616+00:00Z,CTRL_PKT_RECV,132,,,0x50,,,,,,,,,,,,,,,,,,,
2025-06-23T05:04:46.628+00:00Z,SEND_PERMIT_ACK_SENT,,,,,,,132,0x55,,,,,,,,,,,,,,,
2025-06-23T05:04:53.639+00:00Z,CTRL_PKT_RECV,134,,,0x50,,,,,,,,,,,,,,,,,,,
2025-06-23T05:04:53.652+00:00Z,SEND_PERMIT_ACK_SENT,,,,,,,134,0x55,,,,,,,,,,,,,,,
2025-06-23T05:04:57.194+00:00Z,DATA_FRAME_RECV,134,-102,,,33,32,,,,,,,,,,,,,,,,,
2025-06-23T05:04:57.204+00:00Z,DATA_ACK_SENT,,,,,,,134,0xaa,,,,,,,,,,,,,,,
2025-06-23T05:04:57.207+00:00Z,DECODE_SUCCESS,134,-102,,,,,,,True,5205,1750655092.0,-0.308,-0.539,0.801,-0.1,-0.7,0.3,-34.0,17.6,26.5,37.69673538208008,126.21923828125,0.0
2025-06-23T05:05:00.537+00:00Z,CTRL_PKT_RECV,135,,,0x50,,,,,,,,,,,,,,,,,,,
2025-06-23T05:05:00.548+00:00Z,SEND_PERMIT_ACK_SENT,,,,,,,135,0x55,,,,,,,,,,,,,,,
2025-06-23T05:05:07.559+00:00Z,CTRL_PKT_RECV,137,,,0x50,,,,,,,,,,,,,,,,,,,
2025-06-23T05:05:07.572+00:00Z,SEND_PERMIT_ACK_SENT,,,,,,,137,0x55,,,,,,,,,,,,,,,
2025-06-23T05:05:11.114+00:00Z,DATA_FRAME_RECV,137,-102,,,33,32,,,,,,,,,,,,,,,,,
2025-06-23T05:05:11.124+00:00Z,DATA_ACK_SENT,,,,,,,137,0xaa,,,,,,,,,,,,,,,
2025-06-23T05:05:11.127+00:00Z,DECODE_SUCCESS,137,-102,,,,,,,True,5125,1750655106.0,-0.307,-0.538,0.8,0.0,-0.9,0.7,-34.0,17.6,26.5,34.225189208984375,126.59591674804688,63.6
2025-06-23T05:05:14.457+00:00Z,CTRL_PKT_RECV,138,,,0x50,,,,,,,,,,,,,,,,,,,
2025-06-23T05:05:14.468+00:00Z,SEND_PERMIT_ACK_SENT,,,,,,,138,0x55,,,,,,,,,,,,,,,
2025-06-23T05:05:21.479+00:00Z,CTRL_PKT_RECV,140,,,0x50,,,,,,,,,,,,,,,,,,,
2025-06-23T05:05:21.492+00:00Z,SEND_PERMIT_ACK_SENT,,,,,,,140,0x55,,,,,,,,,,,,,,,
2025-06-23T05:05:25.034+00:00Z,DATA_FRAME_RECV,140,-102,,,33,32,,,,,,,,,,,,,,,,,
2025-06-23T05:05:25.044+00:00Z,DATA_ACK_SENT,,,,,,,140,0xaa,,,,,,,,,,,,,,,
2025-06-23T05:05:25.047+00:00Z,DECODE_SUCCESS,140,-102,,,,,,,True,5044,1750655120.0,-0.306,-0.541,0.799,0.3,-0.9,0.9,-34.0,17.6,26.5,36.10687255859375,126.74445343017578,91.1
2025-06-23T05:05:28.377+00:00Z,CTRL_PKT_RECV,141,,,0x50,,,,,,,,,,,,,,,,,,,
2025-06-23T05:05:28.388+00:00Z,SEND_PERMIT_ACK_SENT,,,,,,,141,0x55,,,,,,,,,,,,,,,
2025-06-23T05:05:35.403+00:00Z,CTRL_PKT_RECV,143,,,0x50,,,,,,,,,,,,,,,,,,,
2025-06-23T05:05:35.416+00:00Z,SEND_PERMIT_ACK_SENT,,,,,,,143,0x55,,,,,,,,,,,,,,,
2025-06-23T05:05:38.958+00:00Z,DATA_FRAME_RECV,143,-101,,,33,32,,,,,,,,,,,,,,,,,
2025-06-23T05:05:38.968+00:00Z,DATA_ACK_SENT,,,,,,,143,0xaa,,,,,,,,,,,,,,,
2025-06-23T05:05:38.970+00:00Z,DECODE_SUCCESS,143,-101,,,,,,,True,4968,1750655134.0,-0.308,-0.542,0.797,0.5,-0.3,0.4,-34.0,17.6,26.5,33.93544387817383,128.5131378173828,0.0
2025-06-23T05:05:42.300+00:00Z,CTRL_PKT_RECV,144,,,0x50,,,,,,,,,,,,,,,,,,,
2025-06-23T05:05:42.312+00:00Z,SEND_PERMIT_ACK_SENT,,,,,,,144,0x55,,,,,,,,,,,,,,,
2025-06-23T05:05:49.323+00:00Z,CTRL_PKT_RECV,146,,,0x50,,,,,,,,,,,,,,,,,,,
2025-06-23T05:05:49.336+00:00Z,SEND_PERMIT_ACK_SENT,,,,,,,146,0x55,,,,,,,,,,,,,,,
2025-06-23T05:05:52.878+00:00Z,DATA_FRAME_RECV,146,-102,,,33,32,,,,,,,,,,,,,,,,,
2025-06-23T05:05:52.888+00:00Z,DATA_ACK_SENT,,,,,,,146,0xaa,,,,,,,,,,,,,,,
2025-06-23T05:05:52.890+00:00Z,DECODE_SUCCESS,146,-102,,,,,,,True,4888,1750655148.0,-0.307,-0.542,0.797,0.3,0.0,0.4,-34.0,17.6,26.5,33.65109634399414,127.05352020263672,0.0
2025-06-23T05:05:56.221+00:00Z,CTRL_PKT_RECV,147,,,0x50,,,,,,,,,,,,,,,,,,,
2025-06-23T05:05:56.232+00:00Z,SEND_PERMIT_ACK_SENT,,,,,,,147,0x55,,,,,,,,,,,,,,,
2025-06-23T05:06:03.239+00:00Z,CTRL_PKT_RECV,149,,,0x50,,,,,,,,,,,,,,,,,,,
2025-06-23T05:06:03.252+00:00Z,SEND_PERMIT_ACK_SENT,,,,,,,149,0x55,,,,,,,,,,,,,,,
2025-06-23T05:06:06.794+00:00Z,DATA_FRAME_RECV,149,-102,,,33,32,,,,,,,,,,,,,,,,,
2025-06-23T05:06:06.804+00:00Z,DATA_ACK_SENT,,,,,,,149,0xaa,,,,,,,,,,,,,,,
2025-06-23T05:06:06.806+00:00Z,DECODE_SUCCESS,149,-102,,,,,,,True,4804,1750655162.0,-0.305,-0.541,0.799,0.3,0.4,0.1,-33.9,17.6,26.5,37.09819412231445,129.3732147216797,0.0
2025-06-23T05:06:10.136+00:00Z,CTRL_PKT_RECV,150,,,0x50,,,,,,,,,,,,,,,,,,,
2025-06-23T05:06:10.148+00:00Z,SEND_PERMIT_ACK_SENT,,,,,,,150,0x55,,,,,,,,,,,,,,,
2025-06-23T05:06:17.159+00:00Z,CTRL_PKT_RECV,152,,,0x50,,,,,,,,,,,,,,,,,,,
2025-06-23T05:06:17.172+00:00Z,SEND_PERMIT_ACK_SENT,,,,,,,152,0x55,,,,,,,,,,,,,,,
2025-06-23T05:06:20.713+00:00Z,DATA_FRAME_RECV,152,-102,,,33,32,,,,,,,,,,,,,,,,,
2025-06-23T05:06:20.724+00:00Z,DATA_ACK_SENT,,,,,,,152,0xaa,,,,,,,,,,,,,,,
2025-06-23T05:06:20.727+00:00Z,DECODE_SUCCESS,152,-102,,,,,,,True,4725,1750655176.0,-0.305,-0.541,0.798,0.1,0.2,0.0,-33.9,17.6,26.5,35.081302642822266,126.39617919921875,0.0
2025-06-23T05:06:24.056+00:00Z,CTRL_PKT_RECV,153,,,0x50,,,,,,,,,,,,,,,,,,,
2025-06-23T05:06:24.068+00:00Z,SEND_PERMIT_ACK_SENT,,,,,,,153,0x55,,,,,,,,,,,,,,,
2025-06-23T05:06:31.079+00:00Z,CTRL_PKT_RECV,155,,,0x50,,,,,,,,,,,,,,,,,,,
2025-06-23T05:06:31.092+00:00Z,SEND_PERMIT_ACK_SENT,,,,,,,155,0x55,,,,,,,,,,,,,,,
2025-06-23T05:06:34.634+00:00Z,DATA_FRAME_RECV,155,-102,,,33,32,,,,,,,,,,,,,,,,,
2025-06-23T05:06:34.644+00:00Z,DATA_ACK_SENT,,,,,,,155,0xaa,,,,,,,,,,,,,,,
2025-06-23T05:06:34.646+00:00Z,DECODE_SUCCESS,155,-102,,,,,,,True,5645,1750655189.0,-0.306,-0.542,0.798,-0.2,0.0,-0.2,-34.0,17.6,26.5,35.206600189208984,126.51998901367188,36.9
2025-06-23T05:06:37.976+00:00Z,CTRL_PKT_RECV,156,,,0x50,,,,,,,,,,,,,,,,,,,
2025-06-23T05:06:37.988+00:00Z,SEND_PERMIT_ACK_SENT,,,,,,,156,0x55,,,,,,,,,,,,,,,
2025-06-23T05:06:45.004+00:00Z,CTRL_PKT_RECV,158,,,0x50,,,,,,,,,,,,,,,,,,,
2025-06-23T05:06:45.016+00:00Z,SEND_PERMIT_ACK_SENT,,,,,,,158,0x55,,,,,,,,,,,,,,,
2025-06-23T05:06:48.559+00:00Z,DATA_FRAME_RECV,158,-102,,,33,32,,,,,,,,,,,,,,,,,
2025-06-23T05:06:48.572+00:00Z,DATA_ACK_SENT,,,,,,,158,0xaa,,,,,,,,,,,,,,,
2025-06-23T05:06:48.574+00:00Z,DECODE_SUCCESS,158,-102,,,,,,,True,5572,1750655203.0,-0.307,-0.54,0.795,-0.2,-0.1,-0.6,-34.0,17.6,26.5,37.40279769897461,127.89441680908203,0.0
2025-06-23T05:06:51.902+00:00Z,CTRL_PKT_RECV,159,,,0x50,,,,,,,,,,,,,,,,,,,
2025-06-23T05:06:51.912+00:00Z,SEND_PERMIT_ACK_SENT,,,,,,,159,0x55,,,,,,,,,,,,,,,
2025-06-23T05:06:58.920+00:00Z,CTRL_PKT_RECV,161,,,0x50,,,,,,,,,,,,,,,,,,,
2025-06-23T05:06:58.932+00:00Z,SEND_PERMIT_ACK_SENT,,,,,,,161,0x55,,,,,,,,,,,,,,,
2025-06-23T05:07:02.475+00:00Z,DATA_FRAME_RECV,161,-102,,,33,32,,,,,,,,,,,,,,,,,
2025-06-23T05:07:02.488+00:00Z,DATA_ACK_SENT,,,,,,,161,0xaa,,,,,,,,,,,,,,,
2025-06-23T05:07:02.491+00:00Z,DECODE_SUCCESS,161,-102,,,,,,,True,5489,1750655217.0,-0.308,-0.54,0.796,-0.1,0.0,-0.4,-34.0,17.6,26.5,36.0789794921875,127.61229705810547,0.0
2025-06-23T05:07:05.819+00:00Z,CTRL_PKT_RECV,162,,,0x50,,,,,,,,,,,,,,,,,,,
2025-06-23T05:07:05.832+00:00Z,SEND_PERMIT_ACK_SENT,,,,,,,162,0x55,,,,,,,,,,,,,,,
2025-06-23T05:07:12.834+00:00Z,CTRL_PKT_RECV,164,,,0x50,,,,,,,,,,,,,,,,,,,
2025-06-23T05:07:12.844+00:00Z,SEND_PERMIT_ACK_SENT,,,,,,,164,0x55,,,,,,,,,,,,,,,
2025-06-23T05:07:16.389+00:00Z,DATA_FRAME_RECV,164,-102,,,33,32,,,,,,,,,,,,,,,,,
2025-06-23T05:07:16.400+00:00Z,DATA_ACK_SENT,,,,,,,164,0xaa,,,,,,,,,,,,,,,
2025-06-23T05:07:16.403+00:00Z,DECODE_SUCCESS,164,-102,,,,,,,True,5400,1750655231.0,-0.306,-0.539,0.798,0.1,0.3,0.0,-34.0,17.6,26.5,34.40019607543945,126.65536499023438,71.8
2025-06-23T05:07:19.731+00:00Z,CTRL_PKT_RECV,165,,,0x50,,,,,,,,,,,,,,,,,,,
2025-06-23T05:07:19.744+00:00Z,SEND_PERMIT_ACK_SENT,,,,,,,165,0x55,,,,,,,,,,,,,,,
2025-06-23T05:07:26.752+00:00Z,CTRL_PKT_RECV,167,,,0x50,,,,,,,,,,,,,,,,,,,
2025-06-23T05:07:26.764+00:00Z,SEND_PERMIT_ACK_SENT,,,,,,,167,0x55,,,,,,,,,,,,,,,
2025-06-23T05:07:30.307+00:00Z,DATA_FRAME_RECV,167,-102,,,33,32,,,,,,,,,,,,,,,,,
2025-06-23T05:07:30.320+00:00Z,DATA_ACK_SENT,,,,,,,167,0xaa,,,,,,,,,,,,,,,
2025-06-23T05:07:30.322+00:00Z,DECODE_SUCCESS,167,-102,,,,,,,True,5320,1750655245.0,-0.306,-0.541,0.799,0.6,0.7,0.1,-34.0,17.6,26.5,37.112422943115234,126.50516510009766,22.5
2025-06-23T05:07:33.650+00:00Z,CTRL_PKT_RECV,168,,,0x50,,,,,,,,,,,,,,,,,,,
2025-06-23T05:07:33.660+00:00Z,SEND_PERMIT_ACK_SENT,,,,,,,168,0x55,,,,,,,,,,,,,,,
2025-06-23T05:07:40.667+00:00Z,CTRL_PKT_RECV,170,,,0x50,,,,,,,,,,,,,,,,,,,
2025-06-23T05:07:40.680+00:00Z,SEND_PERMIT_ACK_SENT,,,,,,,170,0x55,,,,,,,,,,,,,,,
2025-06-23T05:07:44.222+00:00Z,DATA_FRAME_RECV,170,-102,,,33,32,,,,,,,,,,,,,,,,,
2025-06-23T05:07:44.232+00:00Z,DATA_ACK_SENT,,,,,,,170,0xaa,,,,,,,,,,,,,,,
2025-06-23T05:07:44.235+00:00Z,DECODE_SUCCESS,170,-102,,,,,,,True,5233,1750655259.0,-0.304,-0.542,0.798,0.3,0.4,0.4,-34.0,17.6,26.5,35.879390716552734,127.48069763183594,0.0
2025-06-23T05:07:47.565+00:00Z,CTRL_PKT_RECV,171,,,0x50,,,,,,,,,,,,,,,,,,,
2025-06-23T05:07:47.576+00:00Z,SEND_PERMIT_ACK_SENT,,,,,,,171,0x55,,,,,,,,,,,,,,,
2025-06-23T05:07:54.588+00:00Z,CTRL_PKT_RECV,173,,,0x50,,,,,,,,,,,,,,,,,,,
2025-06-23T05:07:54.600+00:00Z,SEND_PERMIT_ACK_SENT,,,,,,,173,0x55,,,,,,,,,,,,,,,
2025-06-23T05:07:58.143+00:00Z,DATA_FRAME_RECV,173,-102,,,33,32,,,,,,,,,,,,,,,,,
2025-06-23T05:07:58.156+00:00Z,DATA_ACK_SENT,,,,,,,173,0xaa,,,,,,,,,,,,,,,
2025-06-23T05:07:58.159+00:00Z,DECODE_SUCCESS,173,-102,,,,,,,True,5157,1750655273.0,-0.305,-0.545,0.797,0.1,0.1,-0.1,-34.0,17.6,26.5,37.74421310424805,127.03721618652344,0.0
2025-06-23T05:08:01.486+00:00Z,CTRL_PKT_RECV,174,,,0x50,,,,,,,,,,,,,,,,,,,
2025-06-23T05:08:01.496+00:00Z,SEND_PERMIT_ACK_SENT,,,,,,,174,0x55,,,,,,,,,,,,,,,
2025-06-23T05:08:08.507+00:00Z,CTRL_PKT_RECV,176,,,0x50,,,,,,,,,,,,,,,,,,,
2025-06-23T05:08:08.520+00:00Z,SEND_PERMIT_ACK_SENT,,,,,,,176,0x55,,,,,,,,,,,,,,,
2025-06-23T05:08:12.062+00:00Z,DATA_FRAME_RECV,176,-102,,,33,32,,,,,,,,,,,,,,,,,
2025-06-23T05:08:12.072+00:00Z,DATA_ACK_SENT,,,,,,,176,0xaa,,,,,,,,,,,,,,,
2025-06-23T05:08:12.075+00:00Z,DECODE_SUCCESS,176,-102,,,,,,,True,5072,1750655287.0,-0.307,-0.541,0.8,-0.4,-0.3,-0.4,-34.0,17.6,26.5,37.58332061767578,128.6930389404297,0.0
2025-06-23T05:08:15.406+00:00Z,CTRL_PKT_RECV,177,,,0x50,,,,,,,,,,,,,,,,,,,
2025-06-23T05:08:15.416+00:00Z,SEND_PERMIT_ACK_SENT,,,,,,,177,0x55,,,,,,,,,,,,,,,
2025-06-23T05:08:22.432+00:00Z,CTRL_PKT_RECV,179,,,0x50,,,,,,,,,,,,,,,,,,,
2025-06-23T05:08:22.444+00:00Z,SEND_PERMIT_ACK_SENT,,,,,,,179,0x55,,,,,,,,,,,,,,,
2025-06-23T05:08:25.987+00:00Z,DATA_FRAME_RECV,179,-102,,,33,32,,,,,,,,,,,,,,,,,
2025-06-23T05:08:26.000+00:00Z,DATA_ACK_SENT,,,,,,,179,0xaa,,,,,,,,,,,,,,,
2025-06-23T05:08:26.003+00:00Z,DECODE_SUCCESS,179,-102,,,,,,,True,5000,1750655301.0,-0.305,-0.539,0.797,-0.6,-0.9,-0.1,-34.0,17.6,26.5,36.970977783203125,128.1920623779297,18.5
2025-06-23T05:08:29.330+00:00Z,CTRL_PKT_RECV,180,,,0x50,,,,,,,,,,,,,,,,,,,
2025-06-23T05:08:29.340+00:00Z,SEND_PERMIT_ACK_SENT,,,,,,,180,0x55,,,,,,,,,,,,,,,
2025-06-23T05:08:36.353+00:00Z,CTRL_PKT_RECV,182,,,0x50,,,,,,,,,,,,,,,,,,,
2025-06-23T05:08:36.364+00:00Z,SEND_PERMIT_ACK_SENT,,,,,,,182,0x55,,,,,,,,,,,,,,,
2025-06-23T05:08:39.908+00:00Z,DATA_FRAME_RECV,182,-102,,,33,32,,,,,,,,,,,,,,,,,
2025-06-23T05:08:39.920+00:00Z,DATA_ACK_SENT,,,,,,,182,0xaa,,,,,,,,,,,,,,,
2025-06-23T05:08:39.922+00:00Z,DECODE_SUCCESS,182,-102,,,,,,,True,4920,1750655315.0,-0.308,-0.537,0.799,-0.1,-0.4,0.0,-34.0,17.6,26.5,35.88249206542969,128.02493286132812,29.5
2025-06-23T05:08:43.250+00:00Z,CTRL_PKT_RECV,183,,,0x50,,,,,,,,,,,,,,,,,,,
2025-06-23T05:08:43.260+00:00Z,SEND_PERMIT_ACK_SENT,,,,,,,183,0x55,,,,,,,,,,,,,,,
2025-06-23T05:08:50.272+00:00Z,CTRL_PKT_RECV,185,,,0x50,,,,,,,,,,,,,,,,,,,
2025-06-23T05:08:50.284+00:00Z,SEND_PERMIT_ACK_SENT,,,,,,,185,0x55,,,,,,,,,,,,,,,
2025-06-23T05:08:53.827+00:00Z,DATA_FRAME_RECV,185,-102,,,33,32,,,,,,,,,,,,,,,,,
2025-06-23T05:08:53.840+00:00Z,DATA_ACK_SENT,,,,,,,185,0xaa,,,,,,,,,,,,,,,
2025-06-23T05:08:53.843+00:00Z,DECODE_SUCCESS,185,-102,,,,,,,True,4840,1750655329.0,-0.308,-0.538,0.801,0.3,0.0,0.4,-34.0,17.6,26.5,36.327579498291016,126.5535659790039,0.0
2025-06-23T05:08:57.170+00:00Z,CTRL_PKT_RECV,186,,,0x50,,,,,,,,,,,,,,,,,,,
2025-06-23T05:08:57.180+00:00Z,SEND_PERMIT_ACK_SENT,,,,,,,186,0x55,,,,,,,,,,,,,,,
2025-06-23T05:09:04.188+00:00Z,CTRL_PKT_RECV,188,,,0x50,,,,,,,,,,,,,,,,,,,
2025-06-23T05:09:04.200+00:00Z,SEND_PERMIT_ACK_SENT,,,,,,,188,0x55,,,,,,,,,,,,,,,
2025-06-23T05:09:07.742+00:00Z,DATA_FRAME_RECV,188,-102,,,33,32,,,,,,,,,,,,,,,,,
2025-06-23T05:09:07.752+00:00Z,DATA_ACK_SENT,,,,,,,188,0xaa,,,,,,,,,,,,,,,
2025-06-23T05:09:07.754+00:00Z,DECODE_SUCCESS,188,-102,,,,,,,True,4752,1750655343.0,-0.306,-0.541,0.797,0.5,0.5,0.4,-34.0,17.6,26.5,37.68778610229492,127.9220199584961,0.0
2025-06-23T05:09:11.084+00:00Z,CTRL_PKT_RECV,189,,,0x50,,,,,,,,,,,,,,,,,,,
2025-06-23T05:09:11.096+00:00Z,SEND_PERMIT_ACK_SENT,,,,,,,189,0x55,,,,,,,,,,,,,,,
2025-06-23T05:09:18.109+00:00Z,CTRL_PKT_RECV,191,,,0x50,,,,,,,,,,,,,,,,,,,
2025-06-23T05:09:18.120+00:00Z,SEND_PERMIT_ACK_SENT,,,,,,,191,0x55,,,,,,,,,,,,,,,
2025-06-23T05:09:21.664+00:00Z,DATA_FRAME_RECV,191,-102,,,33,32,,,,,,,,,,,,,,,,,
2025-06-23T05:09:21.676+00:00Z,DATA_ACK_SENT,,,,,,,191,0xaa,,,,,,,,,,,,,,,
2025-06-23T05:09:21.679+00:00Z,DECODE_SUCCESS,191,-102,,,,,,,True,5677,1750655356.0,-0.305,-0.541,0.8,0.4,0.5,0.2,-34.0,17.6,26.5,34.64323806762695,127.67745208740234,0.0
2025-06-23T05:09:25.006+00:00Z,CTRL_PKT_RECV,192,,,0x50,,,,,,,,,,,,,,,,,,,
2025-06-23T05:09:25.016+00:00Z,SEND_PERMIT_ACK_SENT,,,,,,,192,0x55,,,,,,,,,,,,,,,
2025-06-23T05:09:32.029+00:00Z,CTRL_PKT_RECV,194,,,0x50,,,,,,,,,,,,,,,,,,,
2025-06-23T05:09:32.040+00:00Z,SEND_PERMIT_ACK_SENT,,,,,,,194,0x55,,,,,,,,,,,,,,,
2025-06-23T05:09:35.584+00:00Z,DATA_FRAME_RECV,194,-103,,,33,32,,,,,,,,,,,,,,,,,
2025-06-23T05:09:35.596+00:00Z,DATA_ACK_SENT,,,,,,,194,0xaa,,,,,,,,,,,,,,,
2025-06-23T05:09:35.600+00:00Z,DECODE_SUCCESS,194,-103,,,,,,,True,5597,1750655370.0,-0.306,-0.541,0.797,0.0,0.2,0.0,-34.0,17.6,26.5,34.50651550292969,126.29434204101562,0.0
2025-06-23T05:09:38.926+00:00Z,CTRL_PKT_RECV,195,,,0x50,,,,,,,,,,,,,,,,,,,
2025-06-23T05:09:38.936+00:00Z,SEND_PERMIT_ACK_SENT,,,,,,,195,0x55,,,,,,,,,,,,,,,
2025-06-23T05:09:45.948+00:00Z,CTRL_PKT_RECV,197,,,0x50,,,,,,,,,,,,,,,,,,,
2025-06-23T05:09:45.960+00:00Z,SEND_PERMIT_ACK_SENT,,,,,,,197,0x55,,,,,,,,,,,,,,,
2025-06-23T05:09:49.503+00:00Z,DATA_FRAME_RECV,197,-101,,,33,32,,,,,,,,,,,,,,,,,
2025-06-23T05:09:49.516+00:00Z,DATA_ACK_SENT,,,,,,,197,0xaa,,,,,,,,,,,,,,,
2025-06-23T05:09:49.518+00:00Z,DECODE_SUCCESS,197,-101,,,,,,,True,5517,1750655384.0,-0.305,-0.54,0.799,-0.3,-0.1,0.0,-34.0,17.6,26.5,33.66023635864258,128.27786254882812,47.4
2025-06-23T05:09:52.845+00:00Z,CTRL_PKT_RECV,198,,,0x50,,,,,,,,,,,,,,,,,,,
2025-06-23T05:09:52.856+00:00Z,SEND_PERMIT_ACK_SENT,,,,,,,198,0x55,,,,,,,,,,,,,,,
2025-06-23T05:15:46.643+00:00Z,KEYBOARD_INTERRUPT,,,,,,,,,,,,,,,,,,,,,,,
2025-06-23T05:15:46.644+00:00Z,PDR_CALCULATED,,,33.00% (66/200),,,,,,,,,,,,,,,,,,,,
2025-06-23T05:15:46.646+00:00Z,SERIAL_PORT_CLOSED,,,,,,,,,,,,,,,,,,,,,,,
2025-06-23T05:32:41.478+00:00Z,SERIAL_PORT_OPEN,,,,,,,,,,,,,,,,,,,,,,,
2025-06-23T05:32:48.487+00:00Z,HANDSHAKE_SYN_TIMEOUT,,,,,,,,,,,,,,,,,,,,,,,
2025-06-23T05:32:54.555+00:00Z,HANDSHAKE_SYN_RECV,,,,,,,,,,,,,,,,,,,,,,,
2025-06-23T05:32:54.568+00:00Z,HANDSHAKE_ACK_SENT,,,,,,,0,0x00,,,,,,,,,,,,,,,
2025-06-23T05:32:54.568+00:00Z,HANDSHAKE_SUCCESS,,,,,,,,,,,,,,,,,,,,,,,
2025-06-23T05:32:56.898+00:00Z,CTRL_PKT_RECV,0,,,0x50,,,,,,,,,,,,,,,,,,,
2025-06-23T05:32:56.908+00:00Z,SEND_PERMIT_ACK_SENT,,,,,,,0,0x55,,,,,,,,,,,,,,,
2025-06-23T05:33:00.241+00:00Z,CTRL_PKT_RECV,1,,,0x50,,,,,,,,,,,,,,,,,,,
2025-06-23T05:33:00.252+00:00Z,SEND_PERMIT_ACK_SENT,,,,,,,1,0x55,,,,,,,,,,,,,,,
2025-06-23T05:33:07.265+00:00Z,CTRL_PKT_RECV,3,,,0x50,,,,,,,,,,,,,,,,,,,
2025-06-23T05:33:07.276+00:00Z,SEND_PERMIT_ACK_SENT,,,,,,,3,0x55,,,,,,,,,,,,,,,
2025-06-23T05:33:10.820+00:00Z,DATA_FRAME_RECV,3,-102,,,33,32,,,,,,,,,,,,,,,,,
2025-06-23T05:33:10.832+00:00Z,DATA_ACK_SENT,,,,,,,3,0xaa,,,,,,,,,,,,,,,
2025-06-23T05:33:10.834+00:00Z,DECODE_SUCCESS,3,-102,,,,,,,True,1658840020833,91816770.0,21.952,20.28,31.356,1070.9,3255.2,121.4,-881.8,2224.5,-244.5,8.777824160463388e-37,0.09900452196598053,-2854.9
2025-06-23T05:33:14.161+00:00Z,CTRL_PKT_RECV,4,,,0x50,,,,,,,,,,,,,,,,,,,
2025-06-23T05:33:14.172+00:00Z,SEND_PERMIT_ACK_SENT,,,,,,,4,0x55,,,,,,,,,,,,,,,
2025-06-23T05:33:21.185+00:00Z,CTRL_PKT_RECV,6,,,0x50,,,,,,,,,,,,,,,,,,,
2025-06-23T05:33:21.196+00:00Z,SEND_PERMIT_ACK_SENT,,,,,,,6,0x55,,,,,,,,,,,,,,,
2025-06-23T05:33:24.740+00:00Z,DATA_FRAME_RECV,6,-102,,,33,32,,,,,,,,,,,,,,,,,
2025-06-23T05:33:24.752+00:00Z,DATA_ACK_SENT,,,,,,,6,0xaa,,,,,,,,,,,,,,,
2025-06-23T05:33:24.755+00:00Z,DECODE_SUCCESS,6,-102,,,,,,,True,-1555324862246,3305981667.0,-19.581,-24.854,18.56,-2537.6,-2758.8,2961.9,346.3,-837.1,-1736.6,14383259.0,1658723.25,-775.6
2025-06-23T05:33:28.081+00:00Z,CTRL_PKT_RECV,7,,,0x50,,,,,,,,,,,,,,,,,,,
2025-06-23T05:33:28.092+00:00Z,SEND_PERMIT_ACK_SENT,,,,,,,7,0x55,,,,,,,,,,,,,,,
2025-06-23T05:33:35.101+00:00Z,CTRL_PKT_RECV,9,,,0x50,,,,,,,,,,,,,,,,,,,
2025-06-23T05:33:35.112+00:00Z,SEND_PERMIT_ACK_SENT,,,,,,,9,0x55,,,,,,,,,,,,,,,
2025-06-23T05:33:38.656+00:00Z,DATA_FRAME_RECV,9,-102,,,33,32,,,,,,,,,,,,,,,,,
2025-06-23T05:33:38.668+00:00Z,DATA_ACK_SENT,,,,,,,9,0xaa,,,,,,,,,,,,,,,
2025-06-23T05:33:38.670+00:00Z,DECODE_SUCCESS,9,-102,,,,,,,True,394079804669,1356577014.0,-21.743,6.793,-24.195,2895.3,-697.8,2907.2,-162.0,-19.8,-696.9,nan,-6.403211955330335e-06,-1660.7
2025-06-23T05:33:41.998+00:00Z,CTRL_PKT_RECV,10,,,0x50,,,,,,,,,,,,,,,,,,,
2025-06-23T05:33:42.008+00:00Z,SEND_PERMIT_ACK_SENT,,,,,,,10,0x55,,,,,,,,,,,,,,,
2025-06-23T05:33:49.014+00:00Z,CTRL_PKT_RECV,12,,,0x50,,,,,,,,,,,,,,,,,,,
2025-06-23T05:33:49.024+00:00Z,SEND_PERMIT_ACK_SENT,,,,,,,12,0x55,,,,,,,,,,,,,,,
2025-06-23T05:33:52.569+00:00Z,DATA_FRAME_RECV,12,-102,,,33,32,,,,,,,,,,,,,,,,,
2025-06-23T05:33:52.580+00:00Z,DATA_ACK_SENT,,,,,,,12,0xaa,,,,,,,,,,,,,,,
2025-06-23T05:33:52.583+00:00Z,DECODE_SUCCESS,12,-102,,,,,,,True,623944015580,1126712817.0,14.787,-11.139,-19.086,-1808.3,2675.0,-1444.7,767.1,-1403.6,269.5,1.7714569394700064e-11,1.2628241880781553e-21,2205.8
2025-06-23T05:33:55.910+00:00Z,CTRL_PKT_RECV,13,,,0x50,,,,,,,,,,,,,,,,,,,
2025-06-23T05:33:55.920+00:00Z,SEND_PERMIT_ACK_SENT,,,,,,,13,0x55,,,,,,,,,,,,,,,
2025-06-23T05:34:02.931+00:00Z,CTRL_PKT_RECV,15,,,0x50,,,,,,,,,,,,,,,,,,,
2025-06-23T05:34:02.944+00:00Z,SEND_PERMIT_ACK_SENT,,,,,,,15,0x55,,,,,,,,,,,,,,,
2025-06-23T05:34:06.486+00:00Z,DATA_FRAME_RECV,15,-102,,,33,32,,,,,,,,,,,,,,,,,
2025-06-23T05:34:06.496+00:00Z,DATA_ACK_SENT,,,,,,,15,0xaa,,,,,,,,,,,,,,,
2025-06-23T05:34:06.499+00:00Z,DECODE_SUCCESS,15,-102,,,,,,,True,-610990403502,2361647250.0,-6.723,8.685,-9.514,-1199.3,97.4,-1850.0,-1880.4,-856.4,-2594.5,5.3225127154006365e-20,-1.7981970613043986e+19,-3127.4
2025-06-23T05:34:09.828+00:00Z,CTRL_PKT_RECV,16,,,0x50,,,,,,,,,,,,,,,,,,,
2025-06-23T05:34:09.840+00:00Z,SEND_PERMIT_ACK_SENT,,,,,,,16,0x55,,,,,,,,,,,,,,,
2025-06-23T05:34:16.852+00:00Z,CTRL_PKT_RECV,18,,,0x50,,,,,,,,,,,,,,,,,,,
2025-06-23T05:34:16.864+00:00Z,SEND_PERMIT_ACK_SENT,,,,,,,18,0x55,,,,,,,,,,,,,,,
2025-06-23T05:34:20.407+00:00Z,DATA_FRAME_RECV,18,-102,,,33,32,,,,,,,,,,,,,,,,,
2025-06-23T05:34:20.420+00:00Z,DATA_ACK_SENT,,,,,,,18,0xaa,,,,,,,,,,,,,,,
2025-06-23T05:34:20.423+00:00Z,DECODE_SUCCESS,18,-102,,,,,,,True,-130280153579,1880937014.0,10.635,29.391,-0.974,-2381.0,-812.2,3033.6,-527.3,-2435.7,3124.5,1.4451211494820315e-12,-7.419738041350403e-39,1212.4
2025-06-23T05:34:21.693+00:00Z,KEYBOARD_INTERRUPT,,,,,,,,,,,,,,,,,,,,,,,
2025-06-23T05:34:21.694+00:00Z,PDR_CALCULATED,,,3.00% (6/200),,,,,,,,,,,,,,,,,,,,
2025-06-23T05:34:21.695+00:00Z,SERIAL_PORT_CLOSED,,,,,,,,,,,,,,,,,,,,,,,
2025-06-23T05:35:38.297+00:00Z,SERIAL_PORT_OPEN,,,,,,,,,,,,,,,,,,,,,,,
2025-06-23T05:35:40.050+00:00Z,HANDSHAKE_SYN_RECV,,,,,,,,,,,,,,,,,,,,,,,
2025-06-23T05:35:40.059+00:00Z,HANDSHAKE_ACK_SENT,,,,,,,0,0x00,,,,,,,,,,,,,,,
2025-06-23T05:35:40.060+00:00Z,HANDSHAKE_SUCCESS,,,,,,,,,,,,,,,,,,,,,,,
2025-06-23T05:35:42.393+00:00Z,CTRL_PKT_RECV,0,,,0x50,,,,,,,,,,,,,,,,,,,
2025-06-23T05:35:42.403+00:00Z,SEND_PERMIT_ACK_SENT,,,,,,,0,0x55,,,,,,,,,,,,,,,
2025-06-23T05:35:45.734+00:00Z,CTRL_PKT_RECV,1,,,0x50,,,,,,,,,,,,,,,,,,,
2025-06-23T05:35:45.744+00:00Z,SEND_PERMIT_ACK_SENT,,,,,,,1,0x55,,,,,,,,,,,,,,,
2025-06-23T05:35:52.755+00:00Z,CTRL_PKT_RECV,3,,,0x50,,,,,,,,,,,,,,,,,,,
2025-06-23T05:35:52.768+00:00Z,SEND_PERMIT_ACK_SENT,,,,,,,3,0x55,,,,,,,,,,,,,,,
2025-06-23T05:35:55.965+00:00Z,DATA_FRAME_RECV,3,-102,,,25,24,,,,,,,,,,,,,,,,,
2025-06-23T05:35:55.976+00:00Z,DATA_ACK_SENT,,,,,,,3,0xaa,,,,,,,,,,,,,,,
2025-06-23T05:35:55.977+00:00Z,DECODE_SUCCESS_DUMMY,3,-102,"type: dummy, size: 24",,,,,,,,,,,,,,,,,,,,
2025-06-23T05:35:59.307+00:00Z,CTRL_PKT_RECV,4,,,0x50,,,,,,,,,,,,,,,,,,,
2025-06-23T05:35:59.320+00:00Z,SEND_PERMIT_ACK_SENT,,,,,,,4,0x55,,,,,,,,,,,,,,,
2025-06-23T05:36:06.327+00:00Z,CTRL_PKT_RECV,6,,,0x50,,,,,,,,,,,,,,,,,,,
2025-06-23T05:36:06.340+00:00Z,SEND_PERMIT_ACK_SENT,,,,,,,6,0x55,,,,,,,,,,,,,,,
2025-06-23T05:36:09.538+00:00Z,DATA_FRAME_RECV,6,-102,,,25,24,,,,,,,,,,,,,,,,,
2025-06-23T05:36:09.548+00:00Z,DATA_ACK_SENT,,,,,,,6,0xaa,,,,,,,,,,,,,,,
2025-06-23T05:36:09.549+00:00Z,DECODE_SUCCESS_DUMMY,6,-102,"type: dummy, size: 24",,,,,,,,,,,,,,,,,,,,
2025-06-23T05:36:12.880+00:00Z,CTRL_PKT_RECV,7,,,0x50,,,,,,,,,,,,,,,,,,,
2025-06-23T05:36:12.892+00:00Z,SEND_PERMIT_ACK_SENT,,,,,,,7,0x55,,,,,,,,,,,,,,,
2025-06-23T05:36:19.895+00:00Z,CTRL_PKT_RECV,9,,,0x50,,,,,,,,,,,,,,,,,,,
2025-06-23T05:36:19.908+00:00Z,SEND_PERMIT_ACK_SENT,,,,,,,9,0x55,,,,,,,,,,,,,,,
2025-06-23T05:36:23.105+00:00Z,DATA_FRAME_RECV,9,-102,,,25,24,,,,,,,,,,,,,,,,,
2025-06-23T05:36:23.116+00:00Z,DATA_ACK_SENT,,,,,,,9,0xaa,,,,,,,,,,,,,,,
2025-06-23T05:36:23.117+00:00Z,DECODE_SUCCESS_DUMMY,9,-102,"type: dummy, size: 24",,,,,,,,,,,,,,,,,,,,
2025-06-23T05:36:26.447+00:00Z,CTRL_PKT_RECV,10,,,0x50,,,,,,,,,,,,,,,,,,,
2025-06-23T05:36:26.460+00:00Z,SEND_PERMIT_ACK_SENT,,,,,,,10,0x55,,,,,,,,,,,,,,,
2025-06-23T05:36:27.914+00:00Z,KEYBOARD_INTERRUPT,,,,,,,,,,,,,,,,,,,,,,,
2025-06-23T05:36:27.915+00:00Z,PDR_CALCULATED,,,1.50% (3/200),,,,,,,,,,,,,,,,,,,,
2025-06-23T05:36:27.916+00:00Z,SERIAL_PORT_CLOSED,,,,,,,,,,,,,,,,,,,,,,,
2025-06-23T05:42:49.666+00:00Z,SERIAL_PORT_OPEN,,,,,,,,,,,,,,,,,,,,,,,
2025-06-23T05:42:56.674+00:00Z,HANDSHAKE_SYN_TIMEOUT,,,,,,,,,,,,,,,,,,,,,,,
2025-06-23T05:43:03.683+00:00Z,HANDSHAKE_SYN_TIMEOUT,,,,,,,,,,,,,,,,,,,,,,,
2025-06-23T05:43:06.126+00:00Z,HANDSHAKE_SYN_RECV,,,,,,,,,,,,,,,,,,,,,,,
2025-06-23T05:43:06.136+00:00Z,HANDSHAKE_ACK_SENT,,,,,,,0,0x00,,,,,,,,,,,,,,,
2025-06-23T05:43:06.137+00:00Z,HANDSHAKE_SUCCESS,,,,,,,,,,,,,,,,,,,,,,,
2025-06-23T05:43:08.467+00:00Z,CTRL_PKT_RECV,0,,,0x50,,,,,,,,,,,,,,,,,,,
2025-06-23T05:43:08.480+00:00Z,SEND_PERMIT_ACK_SENT,,,,,,,0,0x55,,,,,,,,,,,,,,,
2025-06-23T05:43:11.808+00:00Z,CTRL_PKT_RECV,1,,,0x50,,,,,,,,,,,,,,,,,,,
2025-06-23T05:43:11.820+00:00Z,SEND_PERMIT_ACK_SENT,,,,,,,1,0x55,,,,,,,,,,,,,,,
2025-06-23T05:43:18.827+00:00Z,CTRL_PKT_RECV,3,,,0x50,,,,,,,,,,,,,,,,,,,
2025-06-23T05:43:18.840+00:00Z,SEND_PERMIT_ACK_SENT,,,,,,,3,0x55,,,,,,,,,,,,,,,
2025-06-23T05:43:22.037+00:00Z,DATA_FRAME_RECV,3,-102,,,25,24,,,,,,,,,,,,,,,,,
2025-06-23T05:43:22.048+00:00Z,DATA_ACK_SENT,,,,,,,3,0xaa,,,,,,,,,,,,,,,
2025-06-23T05:43:22.049+00:00Z,DECODE_SUCCESS_DUMMY,3,-102,"type: dummy, size: 24",,,,,,,,,,,,,,,,,,,,
2025-06-23T05:43:25.380+00:00Z,CTRL_PKT_RECV,4,,,0x50,,,,,,,,,,,,,,,,,,,
2025-06-23T05:43:25.392+00:00Z,SEND_PERMIT_ACK_SENT,,,,,,,4,0x55,,,,,,,,,,,,,,,
2025-06-23T05:43:32.401+00:00Z,CTRL_PKT_RECV,6,,,0x50,,,,,,,,,,,,,,,,,,,
2025-06-23T05:43:32.412+00:00Z,SEND_PERMIT_ACK_SENT,,,,,,,6,0x55,,,,,,,,,,,,,,,
2025-06-23T05:43:35.611+00:00Z,DATA_FRAME_RECV,6,-102,,,25,24,,,,,,,,,,,,,,,,,
2025-06-23T05:43:35.624+00:00Z,DATA_ACK_SENT,,,,,,,6,0xaa,,,,,,,,,,,,,,,
2025-06-23T05:43:35.625+00:00Z,DECODE_SUCCESS_DUMMY,6,-102,"type: dummy, size: 24",,,,,,,,,,,,,,,,,,,,
2025-06-23T05:43:38.953+00:00Z,CTRL_PKT_RECV,7,,,0x50,,,,,,,,,,,,,,,,,,,
2025-06-23T05:43:38.964+00:00Z,SEND_PERMIT_ACK_SENT,,,,,,,7,0x55,,,,,,,,,,,,,,,
2025-06-23T05:43:45.977+00:00Z,CTRL_PKT_RECV,9,,,0x50,,,,,,,,,,,,,,,,,,,
2025-06-23T05:43:45.988+00:00Z,SEND_PERMIT_ACK_SENT,,,,,,,9,0x55,,,,,,,,,,,,,,,
2025-06-23T05:43:49.187+00:00Z,DATA_FRAME_RECV,9,-102,,,25,24,,,,,,,,,,,,,,,,,
2025-06-23T05:43:49.200+00:00Z,DATA_ACK_SENT,,,,,,,9,0xaa,,,,,,,,,,,,,,,
2025-06-23T05:43:49.201+00:00Z,DECODE_SUCCESS_DUMMY,9,-102,"type: dummy, size: 24",,,,,,,,,,,,,,,,,,,,
2025-06-23T05:43:52.530+00:00Z,CTRL_PKT_RECV,10,,,0x50,,,,,,,,,,,,,,,,,,,
2025-06-23T05:43:52.540+00:00Z,SEND_PERMIT_ACK_SENT,,,,,,,10,0x55,,,,,,,,,,,,,,,
2025-06-23T05:43:59.553+00:00Z,CTRL_PKT_RECV,12,,,0x50,,,,,,,,,,,,,,,,,,,
2025-06-23T05:43:59.564+00:00Z,SEND_PERMIT_ACK_SENT,,,,,,,12,0x55,,,,,,,,,,,,,,,
2025-06-23T05:44:02.764+00:00Z,DATA_FRAME_RECV,12,-102,,,25,24,,,,,,,,,,,,,,,,,
2025-06-23T05:44:02.776+00:00Z,DATA_ACK_SENT,,,,,,,12,0xaa,,,,,,,,,,,,,,,
2025-06-23T05:44:02.777+00:00Z,DECODE_SUCCESS_DUMMY,12,-102,"type: dummy, size: 24",,,,,,,,,,,,,,,,,,,,
2025-06-23T05:44:06.106+00:00Z,CTRL_PKT_RECV,13,,,0x50,,,,,,,,,,,,,,,,,,,
2025-06-23T05:44:06.116+00:00Z,SEND_PERMIT_ACK_SENT,,,,,,,13,0x55,,,,,,,,,,,,,,,
2025-06-23T05:44:19.141+00:00Z,CTRL_PKT_RECV,16,,,0x50,,,,,,,,,,,,,,,,,,,
2025-06-23T05:44:19.152+00:00Z,SEND_PERMIT_ACK_SENT,,,,,,,16,0x55,,,,,,,,,,,,,,,
2025-06-23T05:44:22.351+00:00Z,DATA_FRAME_RECV,16,-102,,,25,24,,,,,,,,,,,,,,,,,
2025-06-23T05:44:22.364+00:00Z,DATA_ACK_SENT,,,,,,,16,0xaa,,,,,,,,,,,,,,,
2025-06-23T05:44:22.365+00:00Z,DECODE_SUCCESS_DUMMY,16,-102,"type: dummy, size: 24",,,,,,,,,,,,,,,,,,,,
2025-06-23T05:44:25.693+00:00Z,CTRL_PKT_RECV,17,,,0x50,,,,,,,,,,,,,,,,,,,
2025-06-23T05:44:25.704+00:00Z,SEND_PERMIT_ACK_SENT,,,,,,,17,0x55,,,,,,,,,,,,,,,
2025-06-23T05:44:32.713+00:00Z,CTRL_PKT_RECV,19,,,0x50,,,,,,,,,,,,,,,,,,,
2025-06-23T05:44:32.724+00:00Z,SEND_PERMIT_ACK_SENT,,,,,,,19,0x55,,,,,,,,,,,,,,,
2025-06-23T05:44:35.923+00:00Z,DATA_FRAME_RECV,19,-102,,,25,24,,,,,,,,,,,,,,,,,
2025-06-23T05:44:35.936+00:00Z,DATA_ACK_SENT,,,,,,,19,0xaa,,,,,,,,,,,,,,,
2025-06-23T05:44:35.937+00:00Z,DECODE_SUCCESS_DUMMY,19,-102,"type: dummy, size: 24",,,,,,,,,,,,,,,,,,,,
2025-06-23T05:44:39.266+00:00Z,CTRL_PKT_RECV,20,,,0x50,,,,,,,,,,,,,,,,,,,
2025-06-23T05:44:39.276+00:00Z,SEND_PERMIT_ACK_SENT,,,,,,,20,0x55,,,,,,,,,,,,,,,
2025-06-23T05:44:46.284+00:00Z,CTRL_PKT_RECV,22,,,0x50,,,,,,,,,,,,,,,,,,,
2025-06-23T05:44:46.296+00:00Z,SEND_PERMIT_ACK_SENT,,,,,,,22,0x55,,,,,,,,,,,,,,,
2025-06-23T05:44:49.494+00:00Z,DATA_FRAME_RECV,22,-102,,,25,24,,,,,,,,,,,,,,,,,
2025-06-23T05:44:49.504+00:00Z,DATA_ACK_SENT,,,,,,,22,0xaa,,,,,,,,,,,,,,,
2025-06-23T05:44:49.505+00:00Z,DECODE_SUCCESS_DUMMY,22,-102,"type: dummy, size: 24",,,,,,,,,,,,,,,,,,,,
2025-06-23T05:44:52.837+00:00Z,CTRL_PKT_RECV,23,,,0x50,,,,,,,,,,,,,,,,,,,
2025-06-23T05:44:52.848+00:00Z,SEND_PERMIT_ACK_SENT,,,,,,,23,0x55,,,,,,,,,,,,,,,
2025-06-23T05:44:59.853+00:00Z,CTRL_PKT_RECV,25,,,0x50,,,,,,,,,,,,,,,,,,,
2025-06-23T05:44:59.864+00:00Z,SEND_PERMIT_ACK_SENT,,,,,,,25,0x55,,,,,,,,,,,,,,,
2025-06-23T05:45:03.063+00:00Z,DATA_FRAME_RECV,25,-102,,,25,24,,,,,,,,,,,,,,,,,
2025-06-23T05:45:03.076+00:00Z,DATA_ACK_SENT,,,,,,,25,0xaa,,,,,,,,,,,,,,,
2025-06-23T05:45:03.077+00:00Z,DECODE_SUCCESS_DUMMY,25,-102,"type: dummy, size: 24",,,,,,,,,,,,,,,,,,,,
2025-06-23T05:45:06.406+00:00Z,CTRL_PKT_RECV,26,,,0x50,,,,,,,,,,,,,,,,,,,
2025-06-23T05:45:06.416+00:00Z,SEND_PERMIT_ACK_SENT,,,,,,,26,0x55,,,,,,,,,,,,,,,
2025-06-23T05:45:13.425+00:00Z,CTRL_PKT_RECV,28,,,0x50,,,,,,,,,,,,,,,,,,,
2025-06-23T05:45:13.436+00:00Z,SEND_PERMIT_ACK_SENT,,,,,,,28,0x55,,,,,,,,,,,,,,,
2025-06-23T05:45:16.636+00:00Z,DATA_FRAME_RECV,28,-102,,,25,24,,,,,,,,,,,,,,,,,
2025-06-23T05:45:16.648+00:00Z,DATA_ACK_SENT,,,,,,,28,0xaa,,,,,,,,,,,,,,,
2025-06-23T05:45:16.649+00:00Z,DECODE_SUCCESS_DUMMY,28,-102,"type: dummy, size: 24",,,,,,,,,,,,,,,,,,,,
2025-06-23T05:45:19.978+00:00Z,CTRL_PKT_RECV,29,,,0x50,,,,,,,,,,,,,,,,,,,
2025-06-23T05:45:19.988+00:00Z,SEND_PERMIT_ACK_SENT,,,,,,,29,0x55,,,,,,,,,,,,,,,
2025-06-23T05:45:26.993+00:00Z,CTRL_PKT_RECV,31,,,0x50,,,,,,,,,,,,,,,,,,,
2025-06-23T05:45:27.004+00:00Z,SEND_PERMIT_ACK_SENT,,,,,,,31,0x55,,,,,,,,,,,,,,,
2025-06-23T05:45:30.204+00:00Z,DATA_FRAME_RECV,31,-103,,,25,24,,,,,,,,,,,,,,,,,
2025-06-23T05:45:30.216+00:00Z,DATA_ACK_SENT,,,,,,,31,0xaa,,,,,,,,,,,,,,,
2025-06-23T05:45:30.217+00:00Z,DECODE_SUCCESS_DUMMY,31,-103,"type: dummy, size: 24",,,,,,,,,,,,,,,,,,,,
2025-06-23T05:45:33.546+00:00Z,CTRL_PKT_RECV,32,,,0x50,,,,,,,,,,,,,,,,,,,
2025-06-23T05:45:33.556+00:00Z,SEND_PERMIT_ACK_SENT,,,,,,,32,0x55,,,,,,,,,,,,,,,
2025-06-23T05:45:40.561+00:00Z,CTRL_PKT_RECV,34,,,0x50,,,,,,,,,,,,,,,,,,,
2025-06-23T05:45:40.572+00:00Z,SEND_PERMIT_ACK_SENT,,,,,,,34,0x55,,,,,,,,,,,,,,,
2025-06-23T05:45:43.772+00:00Z,DATA_FRAME_RECV,34,-102,,,25,24,,,,,,,,,,,,,,,,,
2025-06-23T05:45:43.784+00:00Z,DATA_ACK_SENT,,,,,,,34,0xaa,,,,,,,,,,,,,,,
